stop_id,stop_code,stop_name,stop_desc,stop_lat,stop_lon
5776,,Carijos 215 ,,-30.149017,-51.219473
64,,Carijos 385 ,,-30.14917,-51.217878
6949,,Cassio De Medeiros 760 ,,-30.102056,-51.248116
3523,,Parque Al 29 Dmae,,-30.012441,-51.210728
3289,,Ibanez Andre Pitthan Souza Al 395 ,,-30.037089,-51.142114
2059,,Guilherme Alves Al 574 ,,-30.052641,-51.186792
6948,,Joao De Oliveira Remiao 4086 09-A,,-30.105496,-51.115127
6582,,Fabio Carneiro Lima 505 ,,-29.990284,-51.131382
6583,,Fabio Carneiro Lima 500 ,,-29.990336,-51.130979
4631,,Campus Ufrgs - Agronomia Sn Entrada Iph,,-30.075467,-51.116171
550,,Jose Gomes 390 ,,-30.107775,-51.249726
1890,,Santiago Dantas Df 4 ,,-30.078601,-51.19447
6946,,Ernesto Neugebauer Df 1820/Ef Trens ,,-29.978908,-51.180878
1870,,Prof Oscar Pereira 3290 ,,-30.078367,-51.199033
6947,,Irmao Felix Roberto (Robertao) 35 ,,-29.987048,-51.187542
4274,,Vinte Um De Abril 1143 ,,-29.982685,-51.129702
3824,,Carneiro Da Fontoura 736 ,,-30.004774,-51.168123
6945,,Dr Ney Cabral Df 104 ,,-30.085946,-51.214205
3677,,A J Renner Sn Df Posto Shell,,-29.987629,-51.194264
1278,,Alpes Df 369 ,,-30.086883,-51.196427
3673,,A J Renner 595 ,,-29.991412,-51.195486
243,,Juca Batista 7424 ,,-30.18004,-51.175768
6603,,Antonio Severino Df 1970 ,,-30.024086,-51.090668
1673,,Octavio De Souza Df 40 ,,-30.079725,-51.214034
1674,,Octavio De Souza 40 ,,-30.079764,-51.213959
1127,,Rio Grande 212 ,,-30.129657,-51.203984
4803,,Delmar Rocha Barbosa Al 336 ,,-30.013311,-51.107849
6683,,Juscelino Kubitschek De Oliveira Al 1030 ,,-30.020842,-51.109618
1741,,Prof Carvalho Freitas 1160 ,,-30.080504,-51.200667
6944,,Dona Iris S/Nº ,,-30.070609,-51.170412
91,,Retiro Da Ponta Grossa Df 2326 ,,-30.184971,-51.196592
92,,Retiro Da Ponta Grossa 2316 ,,-30.184865,-51.196157
100,,Retiro Da Ponta Grossa Df 1750 ,,-30.183719,-51.193627
99,,Retiro Da Ponta Grossa 1700/1710 ,,-30.183646,-51.19327
104,,Retiro Da Ponta Grossa Df 1400 ,,-30.182359,-51.190445
103,,Retiro Da Ponta Grossa 1400 ,,-30.182427,-51.190415
106,,Retiro Da Ponta Grossa Df 1220 ,,-30.181484,-51.188416
5399,,Retiro Da Ponta Grossa 1220 ,,-30.181611,-51.188523
132,,Retiro Da Ponta Grossa 740 ,,-30.180033,-51.184088
5760,,Retiro Da Ponta Grossa 370 ,,-30.179357,-51.180317
241,,Retiro Da Ponta Grossa 427 ,,-30.179287,-51.180339
5833,,Retiro Da Ponta Grossa 84 ,,-30.178847,-51.176528
71,,Retiro Da Ponta Grossa 3605 ,,-30.184903,-51.209868
3381,,Emilio Schlabitz Neto Al 119 Praca,,-30.03866,-51.134413
3382,,Emilio Schlabitz Neto Df 119 Praca,,-30.038614,-51.134483
4852,,Senhor Do Bom Fim 1093 ,,-29.985392,-51.114384
4853,,Senhor Do Bom Fim 1050 ,,-29.985379,-51.114631
2683,,Dona Firmina 1320 ,,-30.073468,-51.168885
2662,,Borborema Df 795 ,,-30.073849,-51.169897
4331,,Otaviano Jose Pinto 390 Df Mercado Extremo-sul,,-30.240283,-51.081418
2663,,Borborema Df 777 ,,-30.073711,-51.169906
4551,,Gervazio Braga Pinheiro 518 Shalon Confeccoes,,-30.122906,-51.098286
4552,,Gervazio Braga Pinheiro Df 488 Escola,,-30.123056,-51.098141
6246,,Francisca De Oliveira Vieira 488 ,,-30.207647,-51.178511
6943,,Francisca De Oliveira Vieira Df 488 ,,-30.207728,-51.17846
2825,,Bem-te-vi 263 ,,-30.056891,-51.152408
1192,,Belem Velho Esq. Kanazawa ,,-30.117353,-51.184538
6942,,Ernesto Neugebauer Df 280 ,,-29.991437,-51.191053
6941,,Ernesto Neugebauer 280 ,,-29.991417,-51.191143
3462,,Alexandre Luiz Df 193 ,,-30.017702,-51.132705
1210,,Amapa 1300 ,,-30.107503,-51.210338
3395,,Nilo Ruschel Df 672 Praca Quadra De Futebol,,-30.034816,-51.131828
4555,,Gervazio Braga Pinheiro Al 738 ,,-30.121278,-51.098922
88,,Heitor Vieira 359/363 ,,-30.210528,-51.183953
5303,,Edgar Pires De Castro Al 2069 ,,-30.156173,-51.170047
4355,,Edgar Pires De Castro Df 10521 Escola General Neto,,-30.204522,-51.11575
4515,,Taquara 467 ,,-30.119332,-51.102817
6940,,Cristiano Kraemer 2007 ,,-30.132167,-51.197213
3610,,Pernambuco 1234 ,,-30.00355,-51.19863
6939,,Marinheiros Al 130 ,,-30.029548,-51.25255
1525,,Maua Ef Armazem A5 ,,-30.030527,-51.237568
6938,,Irmao Antonio Cecchin Df 495 ,,-30.028657,-51.091861
4771,,Joao Fazio Amato 248 ,,-30.017322,-51.097631
2828,,Um Cefer Um Al 253 - Df 170 ,,-30.054985,-51.15239
6502,,Dr Caio Brandao De Mello Ef Emef Ver Anto ,,-29.980277,-51.185782
6351,,Severo Dullius 125 ,,-29.987098,-51.157462
6937,,Severo Dullius Df 25 ,,-29.987112,-51.155876
6936,,Lenea Gaelzer 6935_Espelhada ,,-29.986839,-51.155571
6935,,Lenea Gaelzer Ef Alfa Sist Aut ,,-29.986832,-51.155654
6934,,Seis Mil Trezentos Vinte Um S/N ,,-30.145946,-51.212744
6933,,Solon Vieira Marques 655 ,,-30.141758,-51.134631
6932,,Ten Cel Waldomiro Eifler Al 406 ,,-30.027353,-51.090947
6930,,Brasil Df 834 ,,-30.005766,-51.199147
6931,,Ten Cel Waldomiro Eifler Df 406 ,,-30.027691,-51.091061
6929,,Brasil Df 610 ,,-30.005112,-51.201302
6928,,Winston Churchill Esq R Dr Jose C ,,-30.047191,-51.177023
6927,,Winston Churchill Esq R Liverpool ,,-30.047161,-51.175715
6926,,Winston Churchill Esq R Piramide ,,-30.047126,-51.173651
6685,,Tres Mil Quarenta Lot Campos Conde Sn Po Na Rua D,,-30.026374,-51.129398
6925,,Airton Ferreira Da Silva Df 225 ,,-29.973738,-51.191287
6661,,G Jardim Passo Das Pedras Ii 78 ,,-30.027534,-51.129301
6832,,Minas Gerais Df 425 ,,-29.990448,-51.127533
6577,,Minas Gerais 226 ,,-29.990571,-51.129688
6172,,Juscelino Kubitschek De Oliveira Nn 440 ,,-30.019823,-51.115746
5787,,Ventos Do Sul Df 120 ,,-30.123927,-51.208664
5499,,Azenha  ,,-30.050311,-51.210364
5258,,Pereira Parobe  Mercado Publico,,-30.02705,-51.227411
4919,,Joao Ferreira Jardim Df 749 ,,-30.006978,-51.098854
4124,,Bispo Joao Scalabrini 300 ,,-30.014157,-51.134306
5257,,Pereira Parobe  Mercado Publico,,-30.026888,-51.227469
3453,,G Jardim Passo Das Pedras Ii 124 Construtora Coqueiros,,-30.025997,-51.12877
1902,,Gen Jonathas Borges Fortes 339 Escola,,-30.076304,-51.193025
1901,,Gen Jonathas Borges Fortes Df 339 Escola,,-30.076266,-51.193215
6336,,Brasil 1183 ,,-30.006787,-51.195813
21,,Orleaes 325 ,,-30.16077,-51.225218
186,,Podalirio Teixeira Machado Al 230 ,,-30.208993,-51.178183
570,,Guaiba 1924 Dmae,,-30.095975,-51.251656
571,,Guaiba 570_Espelhada Entrada Iate Clube Guaiba,,-30.095899,-51.251668
6924,,Solon Vieira Marques S/N ,,-30.143839,-51.136101
6921,,Cel Frederico Carlos Gomes 116 ,,-30.119746,-51.205685
4210,,Francisco Silveira Bitencourt 104 ,,-29.993929,-51.127971
2256,,Casemiro De Abreu 1549 ,,-30.033452,-51.192214
4069,,Assis Brasil 4822 ,,-30.006188,-51.139536
6923,,Tres Jardim Protasio Alves 5 ,,-30.041546,-51.106714
6326,,Cassio De Medeiros 25 ,,-30.100911,-51.248319
2687,,Dona Firmina 657 ,,-30.067811,-51.170043
1008,,Coelho Da Costa Df 25 Praça Maurício Zaducliver,,-30.08996,-51.225867
6922,,Leopoldo Bettiol 360 ,,-30.027464,-51.139789
4937,,Mauricio Seligman 527 Escola,,-30.007238,-51.095086
6920,,Mil Setecentos Seis Esq R Dez De Mai ,,-30.023514,-51.130069
6919,,Cel Gastao Haslocher Mazeron Ef 173 ,,-30.062558,-51.21329
6918,,Cel Gastao Haslocher Mazeron Ef 220 ,,-30.063446,-51.212971
6917,,Cel Gastao Haslocher Mazeron Ef 511 ,,-30.066076,-51.21348
6916,,Cel Gastao Haslocher Mazeron Df 637 ,,-30.066836,-51.213521
1715,,Silva Paes Al 1715 (Nn 1737 ,,-30.070192,-51.2116
1709,,Bispo Laranjeira 94 ,,-30.068927,-51.214166
1735,,Teresopolis 2565 ,,-30.076221,-51.208031
2797,,Elias Cirne Lima 200a ,,-30.062013,-51.158691
2802,,Elias Cirne Lima 366 ,,-30.059777,-51.157444
2806,,Elias Cirne Lima 454 ,,-30.058903,-51.156957
6915,,Sergio Jungblut Dieterich Df 900 ,,-29.989066,-51.14311
2104,,Osvaldo Aranha 972 ,,-30.034688,-51.212812
5829,,Rui Barbosa  Cpc,,-30.026479,-51.22402
6854,,Julio De Castilhos 173 ,,-30.025982,-51.224911
1274,,Alpes 1186 ,,-30.093569,-51.192497
6260,,Alpes 1080 ,,-30.092543,-51.193357
1290,,Alpes 893 ,,-30.091573,-51.194664
6631,,Alpes Df 546 ,,-30.088485,-51.195773
1293,,Alpes 546 ,,-30.088431,-51.195707
2661,,Euzebio Silva 99 ,,-30.07507,-51.16975
6914,,Esperanca Cidade De Deus Df 232 ,,-30.114494,-51.227958
509,,Pereira Passos 27 ,,-30.099928,-51.264379
5982,,Maias 461 ,,-29.98979,-51.09594
1515,,Gen Cypriano Ferreira 561 ,,-30.035074,-51.235249
5039,,Nossa Senhora De Lourdes 381 ,,-30.114626,-51.251374
541,,Landel De Moura 999 ,,-30.114531,-51.250499
731,,Landel De Moura 1139 ,,-30.113979,-51.248995
4118,,Augusto Porto Alegre 338 ,,-29.995047,-51.13467
6913,,Lygia Pratini De Moraes 149 ,,-29.988666,-51.092441
883,,Butui 470 ,,-30.086903,-51.236364
6912,,Raymundo Luiz Marinho Filho Al 385 ,,-30.006246,-51.103276
6565,,Edgar Pires De Castro 9233 ,,-30.195766,-51.12884
378,,Edgar Pires De Castro Df 9140 ,,-30.19436,-51.129931
379,,Edgar Pires De Castro 9100 ,,-30.194267,-51.129891
5955,,Edgar Pires De Castro 8675 ,,-30.191691,-51.131368
377,,Edgar Pires De Castro 8517 ,,-30.190363,-51.132596
5954,,Edgar Pires De Castro 8670 ,,-30.191623,-51.131306
6340,,Edgar Pires De Castro 7247 ,,-30.188536,-51.135138
355,,Edgar Pires De Castro Al 8004 ,,-30.18842,-51.135155
354,,Edgar Pires De Castro 6914 ,,-30.185408,-51.137759
347,,Edgar Pires De Castro 6849 ,,-30.184416,-51.138865
6088,,Dorival Castilho Machado 94 ,,-30.159099,-51.191428
351,,Edgar Pires De Castro 6670 ,,-30.183466,-51.139974
6092,,Dorival Castilho Machado Df 757 ,,-30.164414,-51.194372
3627,,Luzitana 826 ,,-30.015834,-51.183986
6093,,A Rua Dorival Castilho Machado Nc ,,-30.166322,-51.195168
3720,,Graciano Camozzato Al185/Df 204 Posto De Saude,,-29.979352,-51.194383
5781,,Graciano Camozzato 26 ,,-29.979154,-51.194895
3719,,Graciano Camozzato Ef Creche Jp Ii Creche João Paulo I,,-29.978796,-51.196285
6911,,Graciano Camozzato Ef Praça Sesi ,,-29.978902,-51.196195
240,,Chapeu Do Sol 1798 ,,-30.183702,-51.16218
3236,,Sargento Manoel Arruda Df 265 ,,-30.045741,-51.146297
4836,,Jorge Furtado Df 74 ,,-30.001239,-51.102464
3428,,Joao Dallegrave Df 275 ,,-30.036465,-51.123894
3860,,Francisco Trein Df 98 ,,-30.011536,-51.159836
4763,,Jose Luiz Martins Costa Df 134 ,,-30.021665,-51.099996
4761,,Jose Luiz Martins Costa Df 80 ,,-30.022747,-51.099909
5168,,Lygia Pratini De Moraes 62 Paulino G. Barcelos,,-29.989757,-51.092407
2090,,Santana Df 440 ,,-30.042082,-51.212111
2091,,Santana 440 Promotoria Ministerio Publico,,-30.04211,-51.211994
3263,,Guadalajara 605 ,,-30.032837,-51.143434
3320,,Guadalajara 580 ,,-30.032637,-51.143345
3237,,Juvenal Cruz Al 297 ,,-30.048002,-51.14417
3313,,Pero Vaz De Caminha 60 ,,-30.026634,-51.150273
3247,,Antonio Carvalho 2800 ,,-30.044693,-51.143158
976,,Vicente Monteggia 1008 ,,-30.103793,-51.22297
5681,,Vicente Monteggia 1029 ,,-30.103684,-51.223084
2405,,Afonso Lourenco Mariante 91 ,,-30.115446,-51.176413
2406,,Afonso Lourenco Mariante 86 ,,-30.11538,-51.176379
1675,,Orfanotrofio 50 ,,-30.077093,-51.214997
886,,Comandai 252 ,,-30.086856,-51.234026
6910,,Voluntarios Da Patria Df Arena ,,-29.973111,-51.195709
4659,,Delegado Ely Correa Prado 45 ,,-30.040879,-51.104327
4225,,Faria Lobato 384 ,,-29.984526,-51.130964
4088,,Assis Chateaubriand Df 525 ,,-29.999135,-51.146137
334,,Costa Gama Df 4448 ,,-30.148553,-51.161288
335,,Costa Gama 4448 ,,-30.148568,-51.161207
2210,,Goethe 195 ,,-30.031387,-51.202958
1711,,Dr Carlos Barbosa Df 1400 ,,-30.067712,-51.212862
6309,,Artur Rocha 860 ,,-30.030547,-51.187962
933,,Otto Niemeyer 3300 ,,-30.10138,-51.229149
961,,Vicente Monteggia 1948 ,,-30.110848,-51.218526
1863,,Sao Manoel 1900 Esc Est Educ Apeles Porto Alegre,,-30.050204,-51.200472
3364,,Alberto Pasqualini 1380 ,,-30.031465,-51.135242
4007,,Benno Mentz Df 603 Praça,,-30.015831,-51.147541
1092,,Derocy Giacomo Da Silva Df 257 ,,-30.127574,-51.210993
4564,,Sao Marcos-lomba Do Pinheiro 56 ,,-30.118637,-51.097006
4495,,Joao De Oliveira Remiao 6650 Ctg,,-30.124483,-51.10375
4810,,Delmar Rocha Barbosa 668 ,,-30.009872,-51.107546
3158,,Antonio Carvalho Al 573 Hospital Independencia,,-30.060986,-51.148738
4906,,Joao Ferreira Jardim 140/Df 205 ,,-30.012114,-51.099237
2116,,Santana 1275 ,,-30.048851,-51.207321
6173,,Juscelino Kubitschek De Oliveira Df 440 ,,-30.019917,-51.115071
6270,,Nossa Senhora De Lourdes 189 ,,-30.112789,-51.252265
542,,Landel De Moura Df 999 ,,-30.114455,-51.250504
4760,,Jose Luiz Martins Costa Df 200 ,,-30.024739,-51.09967
4684,,Ten Alberto Mendes Junior 340 ,,-30.022952,-51.110304
1144,,Cristiano Kraemer 725 ,,-30.122006,-51.202558
1745,,Dom Bosco 20 ,,-30.074577,-51.203171
6909,,Taquara 1486 ,,-30.110507,-51.101202
1146,,Cristiano Kraemer 736 ,,-30.122083,-51.202472
4619,,Taquara Df 1488 ,,-30.110407,-51.101192
6908,,Vitoria 6907_Espelhada ,,-30.202525,-51.121366
6833,,Xavier De Carvalho 247 ,,-29.993847,-51.132725
6834,,Xavier De Carvalho Df 227 ,,-29.99411,-51.132328
6907,,Vitoria 1857 ,,-30.202577,-51.121309
1059,,Dr Pitrez 22 ,,-30.145684,-51.211458
2555,,Sao Francisco Df 820 ,,-30.0951,-51.138219
1193,,Dr Vergara 5025 ,,-30.117473,-51.183962
22,,Orleaes 85/95 ,,-30.158849,-51.225974
5621,,Industriarios Df 9ºdp 9ª Delegacia,,-30.012553,-51.174187
3802,,Industriarios 44 Policia Civil,,-30.012033,-51.174442
3796,,Industriarios 278 ,,-30.013794,-51.173862
3801,,Industriarios Df 294 ,,-30.013954,-51.17393
3795,,Industriarios Df 448 ,,-30.015424,-51.173813
2967,,Industriarios 568 ,,-30.016381,-51.173647
3794,,Industriarios 406 ,,-30.014872,-51.173773
920,,Gregorio Perez 255 ,,-30.107062,-51.225296
3424,,Antonio Giudice Df 136 ,,-30.038941,-51.124174
4549,,Panorama 263 Padaria E Confeitaria,,-30.125516,-51.098139
3467,,I Jardim Passo Das Pedras Ii Al 355 ,,-30.02316,-51.126584
174,,Heitor Vieira 864 ,,-30.212715,-51.179802
3468,,I Jardim Passo Das Pedras Ii Al 398 ,,-30.02328,-51.12649
1722,,Gen Gomes Carneiro 608 ,,-30.069441,-51.210983
3470,,Sebastiao Barreto 275 ,,-30.021781,-51.126459
6906,,Ramiro Barcelos Al 2600 ,,-30.043019,-51.20772
6905,,Toledo Piza Df 24 ,,-29.99034,-51.132964
2473,,Canudos 349 ,,-30.094935,-51.17166
371,,Edgar Pires De Castro Df 9905 ,,-30.199615,-51.125348
560,,Dr Barcelos 889 ,,-30.106038,-51.250339
755,,Dr Barcelos 1071 ,,-30.105388,-51.248423
1491,,Getulio Vargas 1000 ,,-30.053477,-51.2222
1228,,Cel Ruy Da Cunha Paim Al 34 ,,-30.090686,-51.21343
3072,,Cipo 64 ,,-30.020423,-51.163253
6904,,Belize Df 430 ,,-30.159134,-51.139146
3358,,Dezenove De Abril Df 85 Lar Dos Velhos Dr Mauricio Seligman,,-30.027711,-51.138691
6900,,Dona Adda Mascarenhas De Moraes Df 633 ,,-30.016389,-51.135987
1555,,Borges De Medeiros 1565 Tj,,-30.041339,-51.228613
1554,,Borges De Medeiros 1555 Daer,,-30.041179,-51.228596
6892,,Aracaju 650 ,,-30.103163,-51.217308
6026,,Ipiranga  Esq. Prof Cristiano Fischer,,-30.055958,-51.169947
6484,,Ipiranga Ef Puc Cb ,,-30.057749,-51.175688
1622,,Gen Lima E Silva Df 251 ,,-30.036043,-51.224223
2723,,Ipiranga Paradão Puc Cb ,,-30.057395,-51.174875
6903,,Extrema Df Eeef Heitor V ,,-30.213839,-51.050538
3352,,Monsenhor Roncato Df 206 Praca,,-30.028841,-51.141872
4178,,Dante Angelo Pilla Ef Praça Praça,,-30.010926,-51.118532
4177,,Dante Angelo Pilla Ef Quadra Esport ,,-30.011111,-51.118644
3534,,Parque 280 ,,-30.01291,-51.208017
4224,,Faria Lobato 399 ,,-29.984595,-51.130905
4275,,Souza Melo 527 ,,-29.981182,-51.129993
2650,,Luiz Moschetti 930 ,,-30.073843,-51.173298
6899,,Carvalho Df 442 ,,-30.056837,-51.146436
6743,,Afonso Lourenco Mariante Df 3200 ,,-30.10791,-51.152929
2494,,Afonso Lourenco Mariante 3200 ,,-30.107875,-51.152997
6898,,Jaguari Al 160 ,,-30.082298,-51.234561
3894,,Bernardi 56 ,,-30.009564,-51.156543
4212,,Oliveira Lopes 65 ,,-29.992195,-51.128204
6273,,Sertorio 9990 ,,-30.008749,-51.128083
6274,,Sertorio Df 9990 ,,-30.008724,-51.128163
2476,,Afonso Lourenco Mariante Df 1111 ,,-30.113846,-51.166634
6353,,Severo Dullius Ef Emp Fueltech ,,-29.988144,-51.165168
6354,,Severo Dullius 1165 ,,-29.988592,-51.167081
5523,,D Vila Do Sargento Df 377 Posto Saude,,-30.16311,-51.227665
2564,,Sao Francisco 1267 Lanches Laricas,,-30.093397,-51.135169
2744,,Nove De Junho Df 1405 Campo De Futebol,,-30.074825,-51.160593
6857,,Irmao Faustino Joao 994 ,,-30.020795,-51.093999
6855,,Antonio Severino 700 ,,-30.019076,-51.099748
1752,,Prof Oscar Pereira 2248 ,,-30.070175,-51.204413
4765,,Antonio Severino 509 ,,-30.019082,-51.100327
6545,,Faria Lobato Al 904 ,,-29.984272,-51.126339
4452,,Armando Inacio Da Silveira Df 2247 ,,-30.213712,-51.036816
5961,,Maurilio Ferreira Df 691 ,,-30.132455,-51.190367
1172,,Maurilio Ferreira 671 ,,-30.132577,-51.190359
1167,,Maurilio Ferreira 350 ,,-30.135297,-51.192842
1166,,Um Rua Maurilio Ferreira 411 ,,-30.135412,-51.19285
4970,,Maias Al 1147 ,,-29.997435,-51.096229
5495,,Vinte Quatro De Outubro 200 ,,-30.027767,-51.205363
4097,,Sertorio 6767 Leroy Merlin,,-29.997779,-51.14155
3647,,Sertorio Df 1789 ,,-30.002631,-51.186878
3582,,Sertorio Df 492 Senai,,-29.999665,-51.200599
3057,,Saturnino De Brito 1035 ,,-30.032944,-51.151102
3058,,Saturnino De Brito 978 ,,-30.033202,-51.151181
2186,,Ramiro Barcelos 1274 ,,-30.029888,-51.208395
1326,,Pinheiro Borda Df 339 ,,-30.077085,-51.243207
1580,,Loureiro Da Silva 1520 Refrigeracao Consertos,,-30.037662,-51.226464
5839,,Joao Pessoa Ef Pça Piratini Próximo Rua Laurindo,,-30.044479,-51.213687
2790,,Ipiranga 7001 7001 Moveis,,-30.055992,-51.164263
2114,,Felipe Camarao 706 ,,-30.035355,-51.209649
2348,,Eudoro Berlink 623 ,,-30.024318,-51.191412
2304,,Eudoro Berlink 77 ,,-30.024908,-51.197459
5488,,Erico Verissimo Df 1132 No Passeio,,-30.055046,-51.218338
6526,,Dr Nilo Pecanha Ef S.c. Iguatemi Shopping Iguatemi,,-30.027956,-51.162386
1631,,Eng Luiz Englert Sn Faculdade De Engenharia Da Ufrgs,,-30.034409,-51.218913
3981,,Estados Df 1909 ,,-29.980422,-51.179247
3904,,Forte 164 ,,-30.011851,-51.153003
2305,,Cel Lucas De Oliveira Df 1025 Ceaser Tower,,-30.031555,-51.194412
5346,,Carlos Trein Filho Df 1150 ,,-30.031386,-51.186717
5345,,Carlos Gomes 1999 ,,-30.036775,-51.174789
4632,,Campus Ufrgs - Agronomia Sn Anel Viario,,-30.071822,-51.117918
5340,,Bento Goncalves 215 Df Terminal Azenha,,-30.051089,-51.210926
5061,,Carlos Gomes 111 ,,-30.023417,-51.183769
2362,,Augusto Meyer 145 ,,-30.020718,-51.18546
5020,,Assis Brasil 9216 ,,-29.977909,-51.114615
4192,,Assis Brasil 5908 ,,-29.999163,-51.132492
5470,,Assis Brasil 545 ,,-30.008664,-51.180242
2345,,Anita Garibaldi Df 916 ,,-30.026586,-51.186539
2960,,Anita Garibaldi Al 2099 ,,-30.022634,-51.174936
5416,,Antonio Carlos Berta 255 Jardim Europa - Goldstein,,-30.026443,-51.161128
6793,,Martinica 322 ,,-30.16082,-51.139875
5203,,Martinica 341 ,,-30.160889,-51.139847
3361,,Alberto Pasqualini 984 ,,-30.030938,-51.137042
1815,,Moyses Antunes Da Cunha Esq Carlos Pesso Fundos Condominio,,-30.058083,-51.207326
1973,,Silvado Df 338 ,,-30.067893,-51.183995
1972,,Silvado 320 ,,-30.067858,-51.183882
3127,,Adao Baino Df 701 ,,-30.016945,-51.155345
3727,,Palmira Gobbi 820 ,,-29.980266,-51.189495
810,,Camaqua 265 ,,-30.101871,-51.240211
728,,Monte Cristo Al 820 ,,-30.121482,-51.217794
889,,Comandai 117 ,,-30.08566,-51.233822
3123,,Francisco Trein Df 707 ,,-30.017333,-51.158982
5214,,Julio De Castilhos Al 23 ,,-30.026636,-51.226659
6860,,Julio De Castilhos Al 131 ,,-30.026271,-51.225494
5701,,Borges De Medeiros  Bombeiros,,-30.026602,-51.228799
5705,,Borges De Medeiros  Bombeiros,,-30.026927,-51.22866
5078,,Pereira Parobe 141 ,,-30.027689,-51.227186
5087,,Pereira Parobe 147 ,,-30.027563,-51.22723
5255,,Pereira Parobe  Mercado Público,,-30.027438,-51.227273
5256,,Pereira Parobe  Mercado Publico,,-30.027257,-51.227338
5273,,Pereira Parobe  ,,-30.027384,-51.226695
5272,,Pereira Parobe  ,,-30.027258,-51.226721
5271,,Pereira Parobe  ,,-30.027132,-51.226746
5254,,Pereira Parobe  Plataforma Pereira Parobe,,-30.026764,-51.226819
5270,,Pereira Parobe  ,,-30.027012,-51.22677
5269,,Pereira Parobe  ,,-30.026874,-51.226797
5914,,Beira Rio Df Esq R Des Mel Esq. Des. Mello Guimarães,,-30.211031,-51.189205
5994,,Beira Rio 175 ,,-30.210488,-51.188291
84,,Beira Rio Df 127 Praça,,-30.210143,-51.187316
6845,,Euclides Goulart Al 200 ,,-30.209758,-51.187315
458,,Joao Antonio Silveira 1911 ,,-30.155043,-51.139989
3892,,Domingos Martins Df 885 ,,-30.009105,-51.158228
4609,,Taquara Df 1572 ,,-30.109645,-51.101968
2712,,Ipiranga Paradão Puc Bc ,,-30.056961,-51.175234
3190,,Antonio Carvalho 2189 ,,-30.049872,-51.144316
3235,,Bom Principio 48 ,,-30.047951,-51.144852
3191,,Eng Jose Angelo Bettega Cassol 170 ,,-30.049098,-51.144858
6897,,Dr Nilo Pecanha Df R Antonio C B ,,-30.028073,-51.160954
5403,,Borges De Medeiros 646 ,,-30.032248,-51.227741
4179,,Silvestre Felix Rodrigues 970 ,,-30.008946,-51.118589
3893,,Dom Diogo De Souza Df 36 ,,-30.010519,-51.155181
24,,Guaiba 3132 ,,-30.157707,-51.226227
4865,,Caldeia Sn ,,-29.985614,-51.110669
2390,,Costa Gama Df 1606 ,,-30.130304,-51.17599
6443,,Dona Augusta 628 ,,-30.065633,-51.228158
6442,,Dona Augusta 366 ,,-30.063209,-51.226926
6441,,Dona Augusta Al 180 ,,-30.061436,-51.226382
6440,,Dona Augusta 14 ,,-30.06023,-51.226124
6342,,Monte Cristo 456 ,,-30.119247,-51.212513
6493,,Monte Cristo Df 1307 ,,-30.123871,-51.222912
6896,,Willy Eugenio Fleck Ef Braspress ,,-29.995901,-51.114216
4843,,Plinio Kroeff 1755 ,,-29.996392,-51.113589
6895,,Aracaju 95 ,,-30.104238,-51.221899
6894,,Aracaju 40 ,,-30.104402,-51.222349
6893,,Aracaju 643 ,,-30.103229,-51.217112
6890,,Farrapos Al 507 ,,-30.024987,-51.21497
6889,,Gaspar Martins Df 482 ,,-30.021987,-51.210377
6891,,Farrapos 637 ,,-30.023984,-51.213945
5620,,Voluntarios Da Patria 584 ,,-30.026522,-51.220723
5355,,Borges De Medeiros 521 ,,-30.031082,-51.227747
5359,,Borges De Medeiros 512 Brasiltelecom,,-30.031036,-51.227663
5215,,Visconde Do Cairu  Estação Mercado,,-30.026209,-51.226995
5175,,Protasio Alves 10835 ,,-30.041281,-51.105329
5221,,Visconde Do Cairu  Estação Mercado,,-30.026316,-51.226958
5176,,Protasio Alves 10820 ,,-30.041185,-51.105405
6888,,Plinio Kroeff Df 2040 ,,-29.99358,-51.112512
6887,,Plinio Kroeff 2030 ,,-29.993745,-51.112598
2475,,Canudos Df 385 ,,-30.093863,-51.173504
918,,Cavalhada 3800 ,,-30.108338,-51.227113
6886,,Ernesto Neugebauer Sn ,,-29.978533,-51.180748
6882,,Passo Da Taquara 80 ,,-30.190015,-51.092329
6885,,Jose Pedro Boessio Al 114 ,,-29.976052,-51.179884
3329,,Benno Mentz 1785 ,,-30.026902,-51.146345
1246,,Taveira Junior Al 507 ,,-30.089069,-51.210256
1247,,Taveira Junior Df 507 ,,-30.089023,-51.21019
2615,,Dolores Duran 1477 Condomínio Atmosfera,,-30.087898,-51.121989
3077,,Joao Wallig 929 ,,-30.020542,-51.163895
2616,,Dolores Duran 1651 ,,-30.086583,-51.122072
4567,,Sao Marcos-lomba Do Pinheiro Df 317 Praca,,-30.116349,-51.097429
4353,,Edgar Pires De Castro 10300 ,,-30.203216,-51.117368
5368,,Rui Barbosa  Cpc,,-30.025698,-51.22429
5830,,Rui Barbosa  Cpc,,-30.026255,-51.224098
6679,,Dr Vargas Neto Df R. Missouri ,,-30.02364,-51.108513
4888,,Jose Ferreira Jardim 354 ,,-29.988809,-51.108237
6884,,Ernesto Neugebauer Al 2470 ,,-29.972024,-51.177708
5276,,Pereira Parobe  ,,-30.027133,-51.227295
952,,Joao Vedana 440 ,,-30.109622,-51.222931
5088,,Plinio Brasil Milano Praça ,,-30.019147,-51.177209
4092,,Beberibe Al 35 ,,-29.999393,-51.142955
6461,,Sete Mil Cento Vinte Um  Df Hospital Restinga,,-30.144091,-51.129264
2611,,Dolores Duran 959/925 ,,-30.082519,-51.122424
6883,,Gabriel Franco Da Luz Esq R. Joao M Cb ,,-29.983029,-51.123322
2286,,Bage Al 414 ,,-30.040761,-51.186001
2556,,Santo Dias Da Silva 1050 ,,-30.094923,-51.138079
1291,,Alpes 888 ,,-30.091548,-51.194581
1359,,Dormenio 49/51 ,,-30.074756,-51.226996
3519,,Voluntarios Da Patria Df 2083 ,,-30.015418,-51.212453
3342,,Paul Harris 760 ,,-30.023182,-51.142842
3343,,Paul Harris 803 ,,-30.023685,-51.14303
3851,,Umbu 701 ,,-30.015224,-51.162233
2559,,Santo Dias Da Silva Df 844 ,,-30.096552,-51.135683
2558,,Santo Dias Da Silva Al 844 ,,-30.096555,-51.135861
1422,,Prof Manoel Lobato 172 ,,-30.070145,-51.21643
1421,,Prof Manoel Lobato 151 Posto De Saude,,-30.070239,-51.216612
4785,,Dante Angelo Pilla Df 700 ,,-30.008355,-51.117652
5822,,Dona Teodora Al 1014 ,,-29.992892,-51.194359
5823,,Dona Teodora 1077 ,,-29.992996,-51.194284
3672,,A J Renner 580 ,,-29.991518,-51.195607
4793,,Plinio Kroeff Ef Transp Roma ,,-30.003032,-51.116195
6881,,Ricardo Leonidas Ribas 439 ,,-30.145911,-51.135095
6445,,Dona Sofia 113 ,,-30.06636,-51.228835
5296,,Protasio Alves Df 11040 Loteamento Jd. Do Verde,,-30.042942,-51.103358
3037,,Gen Barreto Viana Df 175 ,,-30.039314,-51.158324
890,,Comandai Al 100/Df 107 ,,-30.085677,-51.233738
5295,,Protasio Alves 11040 Loteamento Jd. Do Verde,,-30.042922,-51.103278
6879,,Vinte Um De Abril 940 ,,-29.984367,-51.12966
6578,,Minas Gerais 231 (Df 236) ,,-29.99063,-51.129467
2614,,Antonio Jose De Santana 10 ,,-30.088673,-51.121366
4228,,Martins Bastos 552 ,,-29.987788,-51.129267
6324,,Martins Bastos 692 ,,-29.987699,-51.127669
6531,,Delmar Rocha Barbosa 663 ,,-30.010077,-51.107482
229,,Francisca De Oliveira Vieira 2998 ,,-30.190746,-51.16033
5855,,Barro Vermelho 777 ,,-30.163387,-51.141475
6878,,Dom Pedro Ii 111 ,,-30.008261,-51.190159
697,,Eduardo Prado 1580 ,,-30.132995,-51.21814
5478,,Plinio Brasil Milano Df 757 ,,-30.021681,-51.183772
879,,Capivari Df 845 ,,-30.082835,-51.239635
5663,,Sao Benedito Df 256 ,,-30.04274,-51.165908
6865,,Dr Hermes Pacheco 405 ,,-30.161466,-51.196408
4122,,Gauchos 1250/260 ,,-29.991399,-51.135739
2886,,Prof Cristiano Fischer Df 590 ,,-30.04488,-51.17219
6877,,Deziderio Severino 345 ,,-30.017973,-51.121115
400,,Sandra Brea 300 ,,-30.166182,-51.14021
6876,,Ibanez Andre Pitthan Souza 250 ,,-30.038702,-51.142097
3287,,Irmao Inocencio Luis 495 ,,-30.03905,-51.141178
6875,,Irmao Inocencio Luis 539 ,,-30.037948,-51.141245
5979,,Barro Vermelho 955/Df 960 ,,-30.163279,-51.139515
793,,Landel De Moura 2592 ,,-30.108881,-51.234968
6874,,Souza Costa 540 ,,-30.04645,-51.137912
6873,,Souza Costa Sn ,,-30.049729,-51.139546
6872,,Souza Costa Sn ,,-30.049419,-51.139449
6871,,Dois Mil Setecentos Dezoito Df 755 ,,-30.051316,-51.14119
6870,,Dois Mil Setecentos Dezoito Nn 755 ,,-30.051383,-51.140967
6869,,Dois Mil Setecentos Dezoito Sn ,,-30.053279,-51.145544
6868,,Dois Mil Setecentos Dezoito Sn ,,-30.053218,-51.145389
6867,,Assis Brasil 6415 ,,-29.994694,-51.12983
6866,,Julio Dias De Souza Al 519 ,,-30.161847,-51.19681
6864,,Gen Raphael Zippin Al 100 ,,-30.003522,-51.125085
4155,,Sertorio Df 9460 ,,-30.003726,-51.127566
6863,,Gen Raphael Zippin Df 45 ,,-30.003463,-51.127235
3357,,Vinte Quatro De Agosto 61 ,,-30.027767,-51.139568
6862,,Catarino Andreatta Al 180 ,,-30.119402,-51.206988
1292,,Alpes 732 ,,-30.089846,-51.195129
4583,,Joao De Oliveira Remiao Df 3931 ,,-30.105107,-51.116586
5791,,Tobago Df 886 ,,-30.157518,-51.140784
5185,,Tobago Df 868 ,,-30.157575,-51.140916
1847,,Monsenhor Veras 31 ,,-30.051603,-51.204838
1367,,Hipolito Da Costa Al 30 ,,-30.066949,-51.230452
3318,,Alberto Pasqualini 250 ,,-30.029945,-51.144839
849,,Icarai Df 1174 ,,-30.088755,-51.241442
875,,Icarai 768 ,,-30.085171,-51.240471
870,,Icarai Df 920 ,,-30.08667,-51.240925
842,,Icarai Df 1368 Hipódromo,,-30.090673,-51.241929
844,,Icarai 1368 ,,-30.090691,-51.241848
839,,Icarai Al 1539 ,,-30.093243,-51.242764
840,,Icarai 1556 Bazar,,-30.093964,-51.243409
765,,Wenceslau Escobar 1012 ,,-30.098946,-51.24821
766,,Wenceslau Escobar 915-A ,,-30.099342,-51.248385
5212,,Julio De Castilhos 71 ,,-30.026451,-51.225969
6861,,Carlos Chagas 45 ,,-30.024893,-51.222965
5213,,Julio De Castilhos 53 ,,-30.02652,-51.226225
1649,,Julio De Castilhos 33 ,,-30.026579,-51.226428
6859,,Jose Carlos Dias De Oliveira  ,,-30.02661,-51.227557
6858,,Jose Carlos Dias De Oliveira  ,,-30.026438,-51.22761
5413,,Borges De Medeiros 1017 ,,-30.03555,-51.228044
5412,,Borges De Medeiros 993 ,,-30.035368,-51.228034
5410,,Borges De Medeiros 977 ,,-30.035177,-51.228023
5703,,Borges De Medeiros  Bombeiros,,-30.026777,-51.228724
4775,,Antero Simoes 174/164 ,,-30.021068,-51.096189
6856,,Antonio Severino 826 ,,-30.019044,-51.098247
5373,,Rui Barbosa  Cpc,,-30.026105,-51.22415
5371,,Rui Barbosa  Cpc,,-30.025888,-51.224225
5370,,Rui Barbosa  Cpc,,-30.025788,-51.224259
6853,,Julio De Castilhos 159 ,,-30.026049,-51.225046
3556,,Rio Grande Sn ,,-30.00468,-51.205496
4766,,Antonio Severino 462 ,,-30.01881,-51.100215
508,,Guaiba 4146 ,,-30.10076,-51.265319
6852,,Ernesto Neugebauer 1050 ,,-29.986331,-51.186469
1574,,Borges De Medeiros Df 1210 Ef Caixa Econômica,,-30.037646,-51.228216
1137,,Monte Cristo Df 38 ,,-30.117712,-51.207603
6557,,Souza Melo Df 1053 ,,-29.980815,-51.124901
5329,,Joao Pessoa 312 Escadaria Da Sta Casa,,-30.031105,-51.224052
727,,Monte Cristo 1018 ,,-30.122503,-51.219989
1830,,Padre Antonio Vieira 202 ,,-30.060236,-51.202521
829,,Icarai 1719 Tumelero,,-30.094863,-51.24486
2807,,Capitao Pedro Werlang 498 ,,-30.059303,-51.154775
3136,,Dr Joao Simplicio A De Carvalho Df 142 Praça,,-30.019489,-51.153509
6851,,Cubanos 137 ,,-30.058719,-51.167855
5971,,Capitao Pedroso 560 ,,-30.165874,-51.147263
885,,Comandai 251 Igreja Universal,,-30.08686,-51.234111
6850,,Severo Dullius 521 ,,-29.987181,-51.160419
4992,,Maias 686 ,,-29.991187,-51.095566
6192,,Veiga 284 ,,-30.0667,-51.18387
4481,,Joao Antonio Silveira Al 6015 ,,-30.138774,-51.101859
762,,Dr Castro De Menezes 730/736 ,,-30.102077,-51.248801
1739,,Prof Carvalho Freitas 1078 ,,-30.080054,-51.201433
6848,,Afonso Moacir Cerioli Al 70 ,,-30.024704,-51.098113
6847,,Padre Cacique Ef Shop. Pontal ,,-30.078583,-51.246901
6846,,Dezessete Jardim Dona Leopoldina Ii Df 115 ,,-30.020816,-51.115052
6849,,Polonia Df 50 ,,-30.007248,-51.207752
6057,,Polonia Df 50 Ferramentas Gerais,,-30.007117,-51.208177
1624,,Loureiro Da Silva 2001 Edel Trade Center,,-30.03496,-51.22202
2936,,Cristovao Colombo Al 3719 ,,-30.016996,-51.182948
2948,,Cristovao Colombo Al 4105 Praca Do Skate,,-30.018025,-51.178912
1511,,Loureiro Da Silva 515 Ministerio Da Fazenda,,-30.037286,-51.236374
5208,,Uruguai  Pmpa,,-30.027498,-51.22904
6625,,Edgar Pires De Castro Al 11757 ,,-30.214808,-51.10664
2938,,Cristovao Colombo 3835 ,,-30.016958,-51.181364
5006,,Ovidio Chaves Df 410 Esq.amalia Iracema,,-29.995658,-51.093099
5005,,Ovidio Chaves Sn ,,-29.995754,-51.092695
4772,,Irmaos Maristas Df 01 ,,-30.023922,-51.09755
5458,,Padre Cacique Df 1804 Museu Ibere Camargo,,-30.076565,-51.243983
6138,,Cairu Sn Box 7,,-30.00467,-51.199722
1856,,Monsenhor Veras Df 320 ,,-30.050258,-51.202297
6056,,Polonia Df 50 Ferramentas Gerais,,-30.007011,-51.20852
5897,,Eustaquio Inacio Da Silveira 300 Colégio,,-30.21043,-51.176729
5896,,Beira Rio Df Pç. Praça Inacio Martins Da Silva,,-30.211864,-51.190399
188,,Eustaquio Inacio Da Silveira 291 Escola Estadual Glicério Alves,,-30.210461,-51.176603
6069,,Beira Rio 315 ,,-30.211078,-51.189411
1814,,Moyses Antunes Da Cunha Df 105 Fundos Condominio,,-30.059421,-51.20682
6503,,Dr Caio Brandao De Mello Df Emef Ver Anto ,,-29.98012,-51.186117
482,,Joao Antonio Silveira Df 2531 Bombeiros - Caixa Da Agua,,-30.151334,-51.134166
6844,,Egidio Piccoli 4 ,,-30.041529,-51.10583
6843,,Benno Mentz Al 1607 ,,-30.025328,-51.14659
3336,,Benno Mentz Df 1560 Praça Cabrália,,-30.024729,-51.14669
1141,,Rodrigues Da Fonseca 2014 ,,-30.117425,-51.206425
6396,,Alberto Pasqualini 398 ,,-30.029935,-51.1433
3325,,Guadalajara Df 155 Campo De Futebol,,-30.02882,-51.143546
4241,,Francisco Silveira Bitencourt 565 Ecovile,,-29.993662,-51.123756
1286,,Eng Ludolfo Boehl 1523 ,,-30.084182,-51.198299
3963,,Panamericana Df 1190 ,,-29.998877,-51.15164
6842,,Cel Feijo Df 1217 ,,-30.019628,-51.181494
6841,,Cel Feijo 830 ,,-30.016097,-51.181587
6840,,Cel Feijo 534 ,,-30.013416,-51.181645
6839,,Ari Marinho Ef Cemiterio ,,-30.013204,-51.178787
5887,,Oswaldo Pereira De Freitas 175 ,,-30.06027,-51.162936
3144,,Bento Goncalves 6670 ,,-30.0662,-51.150196
6041,,Siqueira Campos Df 940 ,,-30.028948,-51.23221
4657,,Delegado Ely Correa Prado 1375 ,,-30.034133,-51.106461
6838,,Gabriel Franco Da Luz Ef Praça ,,-29.980962,-51.123476
3440,,Ten Ary Tarrago Al 1230 ,,-30.031495,-51.134509
6176,,Atilio Supertti 600 ,,-30.120813,-51.212524
1103,,Atilio Supertti 661 ,,-30.121222,-51.212497
6837,,Loureiro Da Silva Sn ,,-30.036953,-51.239561
6836,,Loureiro Da Silva Sn ,,-30.037,-51.239288
6835,,Loureiro Da Silva Sn ,,-30.037046,-51.239021
4045,,Dona Adda Mascarenhas De Moraes 356 ,,-30.013811,-51.135672
4046,,Dona Adda Mascarenhas De Moraes Al 389 ,,-30.013753,-51.135749
4176,,Dante Angelo Pilla 122 ,,-30.013488,-51.118954
1736,,Teresopolis 2530 ,,-30.075906,-51.207959
826,,Afonso Arinos 609 ,,-30.101073,-51.235384
144,,Juca Batista Df 4296 Posto Ipiranga,,-30.158555,-51.192403
143,,Juca Batista 4128 Matias Locações,,-30.15823,-51.194094
141,,Juca Batista Df 4023 Churrascaria Pastoriza,,-30.157437,-51.196185
146,,Juca Batista Df 3558 ,,-30.155235,-51.199002
145,,Juca Batista 3550 ,,-30.155114,-51.199033
126,,Juca Batista 3207 Ipanema Box,,-30.152924,-51.20095
127,,Juca Batista 3250 Pararia Abc,,-30.152988,-51.200813
130,,Juca Batista 3046 Mercado Vermelho,,-30.150749,-51.201297
129,,Juca Batista 2600 Associação,,-30.148598,-51.203066
124,,Juca Batista 2420 ,,-30.147442,-51.206593
125,,Juca Batista 2419 Porto Do Sol,,-30.147516,-51.20637
1065,,Juca Batista 2155 ,,-30.147263,-51.208563
1064,,Juca Batista 2104 Estofaria,,-30.147143,-51.208693
1051,,Juca Batista Df 1680 ,,-30.145664,-51.212403
677,,Juca Batista Df 1150 ,,-30.142939,-51.217149
678,,Juca Batista 1120 Nasa Veículos,,-30.142802,-51.217239
674,,Juca Batista 940 Madereira,,-30.141458,-51.219053
684,,Juca Batista 494 Prédio Branco,,-30.138134,-51.220926
683,,Juca Batista 473 ,,-30.138017,-51.221066
686,,Juca Batista 328 Auto-peças,,-30.136698,-51.221779
680,,Juca Batista Df 90 ,,-30.135493,-51.223618
6831,,Souza Melo 913 ,,-29.980966,-51.126347
6830,,Souza Melo 910 ,,-29.980896,-51.126375
6829,,Novecentos Vinte Cinco Df 1084 ,,-29.980884,-51.124204
4749,,Adelino Ferreira Jardim Df 380 ,,-30.020727,-51.102907
676,,Juca Batista Al 770 Manlec,,-30.140378,-51.219774
2892,,Prof Abilio Azambuja Df 355 ,,-30.048577,-51.168705
48,,Serraria Df 1844 ,,-30.159406,-51.22013
3392,,Mario Meneghetti 96 ,,-30.033352,-51.133811
324,,Edgar Pires De Castro Df 3390 ,,-30.16084,-51.15984
40,,Serraria 2105 ,,-30.161979,-51.220058
5032,,Dr Joao Dentice Al 819 ,,-30.162459,-51.139315
6828,,Jorge Pereira Nunes 1569/Df 1532 ,,-30.132814,-51.189205
5116,,Jorge Pereira Nunes 1610 ,,-30.134622,-51.187427
6790,,Jorge Pereira Nunes 5116_Espelhada ,,-30.134669,-51.187489
6827,,Jorge Pereira Nunes 1532 ,,-30.132861,-51.189045
6091,,Dorival Castilho Machado 600 ,,-30.163004,-51.193573
6090,,Dorival Castilho Machado Df 450 ,,-30.161688,-51.192846
6089,,Dorival Castilho Machado Df 303 ,,-30.160398,-51.192139
5590,,Oswaldo De Deus E Silva 150 ,,-30.131178,-51.197765
4425,,Sao Caetano 1680 ,,-30.174172,-51.066659
4423,,Sao Caetano 1957 Sitio Joao De Barro,,-30.17767,-51.067449
4351,,Luiz Correa Da Silva 2010 ,,-30.216358,-51.066908
1060,,Cirino Prunes Df 100 ,,-30.147143,-51.21039
121,,Cirino Prunes 352 ,,-30.147777,-51.212959
120,,Cirino Prunes 546 ,,-30.148234,-51.215037
113,,Serraria 3300 Dmlu,,-30.168942,-51.213593
109,,Serraria 2830 ,,-30.176302,-51.213902
1222,,Amapa Df 1541 ,,-30.106266,-51.207025
6639,,Quirinas 6638_Espelhada ,,-30.170711,-51.080917
6824,,Quirinas 6635_Espelhada ,,-30.183249,-51.089577
6823,,Edgar Pires De Castro 6625_Espelhada ,,-30.214758,-51.10658
6822,,Tres Meninas 6619_Espelhada ,,-30.122011,-51.194465
6821,,Gedeon Leite 6574_Espelhada ,,-30.146284,-51.175645
6820,,Otaviano Pinto 6564_Espelhada ,,-30.215832,-51.050389
6819,,Sao Caetano 6560_Espelhada ,,-30.181711,-51.077647
6818,,Taquara 6555_Espelhada ,,-30.198289,-51.102152
6817,,Taquara 6554_Espelhada ,,-30.198788,-51.103194
6816,,Maurilio Ferreira 6536_Espelhada ,,-30.134299,-51.191803
6815,,Maurilio Ferreira 6535_Espelhada ,,-30.137579,-51.19465
6814,,Edgar Pires De Castro 6477_Espelhada ,,-30.218365,-51.101568
6813,,Quirinas 6399_Espelhada ,,-30.182004,-51.088034
6812,,Quirinas 6398_Espelhada ,,-30.180363,-51.084786
6811,,Quirinas 6397_Espelhada ,,-30.156901,-51.082028
6810,,Edgar Pires De Castro 6248_Espelhada ,,-30.207228,-51.11329
6808,,Varejao 6185_Espelhada ,,-30.230728,-51.061976
6809,,Varejao 6223_Espelhada ,,-30.221154,-51.09229
6807,,Dorival Castilho Machado 6092_Espelhada ,,-30.164375,-51.194443
6806,,Dorival Castilho Machado 6091_Espelhada ,,-30.162969,-51.193645
6805,,Dorival Castilho Machado 6090_Espelhada ,,-30.161673,-51.192929
6804,,Dorival Castilho Machado 6089_Espelhada ,,-30.16037,-51.192217
6803,,Dorival Castilho Machado 6088_Espelhada ,,-30.159181,-51.191565
6802,,Jorge Pereira Nunes 5948_Espelhada ,,-30.148149,-51.178699
6801,,Costa Gama 5938_Espelhada ,,-30.137336,-51.170221
6800,,Luiz Otavio 5773_Espelhada ,,-30.11898,-51.160513
5762,,Gedeon Leite 6575_Espelhada ,,-30.145643,-51.175901
6799,,Sao Caetano 5753_Espelhada ,,-30.179929,-51.068032
6798,, 5734_Espelhada ,,-30.004645,-51.267423
6797,,Passo Da Taquara 5730_Espelhada ,,-30.191288,-51.09057
6796,,Quirinas 5700_Espelhada ,,-30.152336,-51.087536
6795,,Oswaldo De Deus E Silva 5590_Espelhada ,,-30.131132,-51.19783
6794,,Armando Inacio Da Silveira 5578_Espelhada ,,-30.220605,-51.04632
5300,,Padre Pedro Leonardi 44 Acesso Três,,-30.144292,-51.125975
5201,,Capitao Pedroso Df 285 ,,-30.165385,-51.149952
5196,,Juca Batista Df 8455 ,,-30.190711,-51.175014
6791,,Afonso Lourenco Mariante 5163_Espelhada ,,-30.113442,-51.16506
6789,,Borba Gato-lomba Do Pinheiro 4611_Espelhada ,,-30.105662,-51.109783
6788,,Borba Gato-lomba Do Pinheiro 4598_Espelhada ,,-30.107139,-51.106911
6787,,Borba Gato-lomba Do Pinheiro 4593_Espelhada ,,-30.106518,-51.108165
6786,,Tanaui Da Silva Boeira 4554_Espelhada ,,-30.121718,-51.1002
6785,,Quirinas 4537_Espelhada ,,-30.143448,-51.085608
6784,,Quirinas 4535_Espelhada ,,-30.147603,-51.08813
6783,,Armando Inacio Da Silveira 4465_Espelhada ,,-30.204273,-51.02079
6782,,Armando Inacio Da Silveira 4461_Espelhada ,,-30.206509,-51.024316
4460,,Armando Inacio Da Silveira 4459_Espelhada ,,-30.208798,-51.028059
6781,,Armando Inacio Da Silveira 4457_Espelhada ,,-30.21031,-51.029078
6780,,Armando Inacio Da Silveira 4455_Espelhada ,,-30.211631,-51.032236
4449,,Armando Inacio Da Silveira 4450_Espelhada ,,-30.214422,-51.038708
6779,,Armando Inacio Da Silveira 4448_Espelhada ,,-30.215866,-51.04035
4426,,Sao Caetano 4425_Espelhada ,,-30.174107,-51.066708
4424,,Sao Caetano 4423_Espelhada ,,-30.177647,-51.06737
6636,,Quirinas 4410_Espelhada ,,-30.159313,-51.079619
6637,,Quirinas 4407_Espelhada ,,-30.164047,-51.079817
6778,,Quirinas 4406_Espelhada ,,-30.166549,-51.080776
6640,,Quirinas 4404_Espelhada ,,-30.172083,-51.081445
6641,,Quirinas 4398_Espelhada ,,-30.173369,-51.081759
6777,,Quirinas 4397_Espelhada ,,-30.176638,-51.082636
6776,,Extrema 4395_Espelhada ,,-30.212045,-51.058731
6775,,Extrema 4393_Espelhada ,,-30.210787,-51.062127
6774,,Luiz Correa Da Silva 4391_Espelhada ,,-30.211679,-51.063725
6773,,Sao Caetano 4390_Espelhada ,,-30.181265,-51.073159
6772,,Sao Caetano 4386_Espelhada ,,-30.187874,-51.082277
6771,,Quirinas 4384_Espelhada ,,-30.153573,-51.08624
6770,,Sao Caetano 4382_Espelhada ,,-30.190078,-51.086445
6769,,Sao Caetano 4379_Espelhada ,,-30.190662,-51.087319
6768,,Passo Da Taquara 4378_Espelhada ,,-30.19181,-51.089348
6767,,Passo Da Taquara 4376_Espelhada ,,-30.190541,-51.091813
6766,,Quirinas 4374_Espelhada ,,-30.187111,-51.094101
6765,,Quirinas 4373_Espelhada ,,-30.186049,-51.093219
6764,,Passo Da Taquara 4372_Espelhada ,,-30.189382,-51.093711
6763,,Taquara 4370_Espelhada ,,-30.190211,-51.094497
6762,,Taquara 4367_Espelhada ,,-30.195046,-51.098788
6761,,Sao Caetano 4366_Espelhada ,,-30.207924,-51.090935
6760,,Taquara 4360_Espelhada ,,-30.200575,-51.108281
6759,,Edgar Pires De Castro 4357_Espelhada ,,-30.211312,-51.109668
6758,,Taquara 4356_Espelhada ,,-30.202626,-51.112425
6757,,Luiz Correa Da Silva 4351_Espelhada ,,-30.216382,-51.066819
6755,,Varejao 4349_Espelhada ,,-30.228803,-51.066713
6754,,Luiz Correa Da Silva 4342_Espelhada ,,-30.22743,-51.076348
6756,,Luiz Correa Da Silva 4350_Espelhada ,,-30.223476,-51.073354
6753,,Luiz Correa Da Silva 4335_Espelhada ,,-30.23064,-51.078444
6752,,Luiz Correa Da Silva 4334_Espelhada ,,-30.23501,-51.079734
6751,,Luiz Correa Da Silva 4333_Espelhada ,,-30.237688,-51.080832
4338,,Varejao 4339_Espelhada ,,-30.223291,-51.079108
4320,,Varejao 372 E E E F Oscar Coelho De Souza,,-30.220289,-51.097245
6750,,Edgar Pires De Castro 4295_Espelhada ,,-30.215874,-51.104989
6749,,Jaime Lino Dos Santos Filho 2537_Espelhada ,,-30.104477,-51.140046
6747,,Jaime Lino Dos Santos Filho 2532_Espelhada ,,-30.107825,-51.140623
6746,,Jaime Lino Dos Santos Filho 2530_Espelhada ,,-30.108684,-51.140766
6745,,Jaime Lino Dos Santos Filho 2528_Espelhada ,,-30.109953,-51.140983
6748,,Jaime Lino Dos Santos Filho 2534_Espelhada ,,-30.106371,-51.140355
6744,,Leonilda Flores Rubens 2527_Espelhada ,,-30.109411,-51.142138
6742,,Barcellos 2472_Espelhada ,,-30.089711,-51.179548
6741,,Alpes 2458_Espelhada ,,-30.096971,-51.179405
6740,,Luiz Otavio 2429_Espelhada ,,-30.120002,-51.158753
6739,,Gedeon Leite 2383_Espelhada ,,-30.14002,-51.174334
6738,,Gedeon Leite 2382_Espelhada ,,-30.141035,-51.174931
6737,,Gedeon Leite 2376_Espelhada ,,-30.144398,-51.175802
2380,,Gedeon Leite 2375_Espelhada ,,-30.147036,-51.175337
6736,,Jorge Pereira Nunes 2374_Espelhada ,,-30.142844,-51.183548
6735,,Jorge Pereira Nunes 2372_Espelhada ,,-30.143613,-51.182752
6734,,Jorge Pereira Nunes 2371_Espelhada ,,-30.144549,-51.181386
6733,,Jorge Pereira Nunes 1177_Espelhada ,,-30.138985,-51.185262
6732,,Jorge Pereira Nunes 1175_Espelhada ,,-30.136609,-51.186404
6731,,Jorge Pereira Nunes 1171_Espelhada ,,-30.141018,-51.184728
6730,,Maurilio Ferreira 1164_Espelhada ,,-30.136754,-51.19395
6729,,Cirino Prunes 1060_Espelhada ,,-30.147208,-51.210347
6728,, 600_Espelhada ,,-29.992091,-51.273581
6727,,Nossa Senhora Da Boa Viagem 587_Espelhada ,,-30.022999,-51.254846
6726,,Presidente Vargas 585_Espelhada ,,-30.02429,-51.2547
6725,,Presidente Vargas 581_Espelhada ,,-30.027654,-51.253074
6724,,Presidente Vargas 578_Espelhada ,,-30.025973,-51.253887
6723,,Presidente Vargas 574_Espelhada ,,-30.019262,-51.258214
6722,,Presidente Vargas 573_Espelhada ,,-30.020775,-51.257567
6721,,Edgar Pires De Castro 386_Espelhada ,,-30.178475,-51.142918
6720,,Edgar Pires De Castro 384_Espelhada ,,-30.174382,-51.146963
6719,,Edgar Pires De Castro 371_Espelhada ,,-30.199706,-51.125271
6718,,Vitoria 367_Espelhada ,,-30.205836,-51.125386
6717,,Edgar Pires De Castro 365_Espelhada ,,-30.198687,-51.126905
6716,,Vitoria 363_Espelhada ,,-30.207162,-51.127021
6715,,Vitoria 361_Espelhada ,,-30.20919,-51.12965
6713,,Lami 342_Espelhada ,,-30.211096,-51.138568
6714,,Edgar Pires De Castro 348_Espelhada ,,-30.182678,-51.14121
6712,,Schneider 322_Espelhada ,,-30.160662,-51.160901
6711,,Schneider 318_Espelhada ,,-30.161547,-51.164257
6710,,Francisca De Oliveira Vieira 229_Espelhada ,,-30.190783,-51.16026
6708,,Lami 207_Espelhada ,,-30.210957,-51.172778
6709,,Francisca De Oliveira Vieira 228_Espelhada ,,-30.192337,-51.161849
6706,,Lami 168_Espelhada ,,-30.216528,-51.121266
6707,,Francisca De Oliveira Vieira 193_Espelhada ,,-30.206442,-51.176765
6705,,Retiro Da Ponta Grossa 132_Espelhada ,,-30.179959,-51.184113
6704,,Cirino Prunes 121_Espelhada ,,-30.147703,-51.212986
6703,,Cirino Prunes 120_Espelhada ,,-30.148165,-51.215063
6702,,Serraria 113_Espelhada ,,-30.168957,-51.213675
6701,,Serraria 109_Espelhada ,,-30.17635,-51.213971
6700,,Geralda Dos Santos Moreira 17_Espelhada ,,-30.162664,-51.226473
6699,,Retiro Da Ponta Grossa 12_Espelhada ,,-30.184023,-51.219935
6698,,Retiro Da Ponta Grossa 10_Espelhada ,,-30.184718,-51.221191
6697,,Retiro Da Ponta Grossa 9_Espelhada ,,-30.185845,-51.223357
6696,,Beira Rio 2_Espelhada ,,-30.213092,-51.194512
3524,,Parque 60 ,,-30.012411,-51.210499
6053,,Luiz Correa Da Silva Df 62 ,,-30.228921,-51.077379
6695,,Dr Julio Teixeira 150 ,,-30.130369,-51.215288
3337,,Benno Mentz Ef Pça Dom Pedro ,,-30.021204,-51.147184
1584,,Cel Fernando Machado 1160 ,,-30.034826,-51.226924
3311,,Saturnino De Brito 1601 ,,-30.027571,-51.15062
4196,,Assis Brasil 6250 ,,-29.99612,-51.130788
6694,,Tres Mil Setecentos Setenta Dois 42 ,,-30.084835,-51.131172
6693,,Tres Mil Setecentos Setenta Dois 196/210 ,,-30.085279,-51.129443
6692,,Tres Mil Setecentos Setenta Dois 394 ,,-30.08582,-51.127713
6691,,Tres Mil Setecentos Setenta Dois 550 ,,-30.086179,-51.126048
6690,,Tres Mil Setecentos Quarenta Oito Sn ,,-30.085089,-51.12582
6689,,Dois Rua Santa Paula Al 88 ,,-30.08437,-51.124864
6688,,Santa Paula Df 140 ,,-30.083941,-51.123649
6687,,Santa Paula 25 ,,-30.082704,-51.12304
267,,Juca Batista 5163 Afbrde,,-30.162698,-51.183366
266,,Juca Batista Df 5163 Assoc Func Do Brde,,-30.162687,-51.183282
5956,,Juca Batista 4971 ,,-30.161276,-51.184884
5957,,Juca Batista Df 4971 ,,-30.161251,-51.184772
3091,,Dr Joao Simplicio A De Carvalho Df 685 ,,-30.019372,-51.158943
3092,,Dr Joao Simplicio A De Carvalho 755 ,,-30.01938,-51.159873
4120,,Moreira Da Silva Df 280 ,,-29.992229,-51.135736
6686,,Grecia Df 34 Pça Darcy Vignoli,,-30.013916,-51.168542
3697,,Amynthas Jacques De Moraes 59 ,,-29.988929,-51.190091
4644,,Martim Felix Berta 3300 ,,-30.036906,-51.113849
4805,,Edu Las-casas 167 ,,-30.008491,-51.109652
4662,,Delegado Ely Correa Prado 327 ,,-30.038389,-51.104276
825,,Otto Niemeyer 2592 ,,-30.10282,-51.233488
5863,,Otto Niemeyer 1313 ,,-30.107127,-51.245845
2672,,Ten Alpoim 710 ,,-30.067334,-51.174514
3675,,Nove De Junho Df 833 ,,-30.06956,-51.161582
6439,,Padre Todesco Df 60 ,,-30.061707,-51.160039
562,,Wenceslau Escobar 1275 ,,-30.1013,-51.24984
6610,,Taquary 287/Df 220 ,,-30.077217,-51.241869
4890,,Bernardino Silveira Pastoriza 260 ,,-29.991447,-51.106209
4060,,Assis Brasil 4737 ,,-30.006697,-51.14011
6659,,Joao Antonio Silveira 3155 ,,-30.144629,-51.128522
1903,,Intendente Alfredo Azevedo 844 Mat De Construcao E Ferragem,,-30.074357,-51.192559
1937,,Intendente Alfredo Azevedo 1030 ,,-30.07402,-51.19067
1938,,Intendente Alfredo Azevedo 1190 ,,-30.073697,-51.18889
1934,,Gen Jonathas Borges Fortes Df 577 ,,-30.075812,-51.190811
1939,,Gen Jonathas Borges Fortes Df 809 Confeccoes E Bazar Arco Iris,,-30.075365,-51.188469
1943,,Gen Jonathas Borges Fortes Al 930 Mini Mercado E Acougue Irmaos Groff,,-30.075085,-51.186925
1962,,Patrimonio Df 26 ,,-30.073648,-51.187138
1966,,Maria Luiza Peres Df 265 ,,-30.073807,-51.184926
2621,,Maria Luiza Peres Df 409 ,,-30.074499,-51.18361
2623,,Maria Luiza Peres Df 170 ,,-30.074707,-51.181899
2462,,Prof Oscar Pereira 6100 ,,-30.094295,-51.178195
3806,,Plinio Brasil Milano 2510 ,,-30.012017,-51.17105
6684,,Juscelino Kubitschek De Oliveira Df Praça México ,,-30.020861,-51.110241
6682,,Juscelino Kubitschek De Oliveira Sn ,,-30.020376,-51.112784
6681,,Juscelino Kubitschek De Oliveira Al 570 ,,-30.020306,-51.112767
6680,,Jose Pereira De Borba Df 345 ,,-30.023697,-51.109453
4714,,Jose Pereira De Borba Df 385 ,,-30.023724,-51.109155
6678,,Dr Vargas Neto Al 490 ,,-30.021801,-51.108242
6677,,Karl Iwers Sn ,,-30.024063,-51.131076
4715,,Jose Pereira De Borba Df 405 Mini Mercado Shulz,,-30.023747,-51.108859
6676,,Nortran Df 61 ,,-30.020033,-51.121793
3499,,Nortran Al 61 ,,-30.020127,-51.121917
3492,,Leopoldino J Santos Df 353 ,,-30.017443,-51.122028
3121,,Dr Joao Simplicio A De Carvalho 575 ,,-30.019198,-51.157912
1110,,Joao Salomoni 1257 ,,-30.11513,-51.213959
6675,,Adelino Ferreira Jardim 351 ,,-30.020532,-51.101506
3438,,Seis De Novembro 37 ,,-30.033057,-51.119627
6674,,Adelino Ferreira Jardim 635/Bloco D2 ,,-30.020509,-51.101192
3120,,Dr Joao Simplicio A De Carvalho Df 599 ,,-30.019284,-51.158043
1413,,Correa Lima 810 ,,-30.066366,-51.223817
1459,,Praia De Belas Df 1181 Df Shopping,,-30.049211,-51.227754
6673,,Dom Pedro Ii 1240/1250 ,,-30.018096,-51.186344
6672,,Dolores Duran 1643 ,,-30.089278,-51.121478
2222,,Felix Da Cunha Df 1078 Pca Mauricio Cardoso,,-30.022346,-51.201996
31,,Guaiba Sn Esq Tabajaras ,,-30.147271,-51.224737
511,,Guaiba 3955 ,,-30.09916,-51.264229
6671,,Edu Las-casas Df 745 ,,-30.006723,-51.106177
4812,,Edu Las-casas 550 ,,-30.008239,-51.106521
3204,, 9500 Saída Colégio Aplicação - Ufrgs,,-30.075787,-51.125144
4699,,Martim Felix Berta 1340 ,,-30.028963,-51.106794
4943,,Tarcila Moraes Dutra Df 320 ,,-30.003013,-51.09384
3034,,Protasio Alves 6015 Posto Br,,-30.041509,-51.150983
4245,,Francisco Silveira Bitencourt 865 ,,-29.993893,-51.121313
4208,,Assis Brasil 6501 ,,-29.993997,-51.129227
2224,,Cristovao Colombo 1720 ,,-30.01818,-51.203701
4871,,Bernardino Silveira De Amorim 2050 ,,-30.00004,-51.105865
3478,,Gomes De Carvalho 662 ,,-30.018343,-51.126768
1480,,Mariano De Matos Df 365 ,,-30.063739,-51.216849
5534,,Cel Gastao Haslocher Mazeron Ef Praça Ef Praça,,-30.060208,-51.216171
348,,Edgar Pires De Castro 6764 ,,-30.182643,-51.141137
545,,Otto Niemeyer 754 ,,-30.108985,-51.251497
4393,,Extrema 3033 ,,-30.21086,-51.062107
1195,,Joao Salomoni 1112 ,,-30.114178,-51.2153
23,,Orleaes 64 ,,-30.15834,-51.226083
6487,,Osvldo Franca Junior Df 2190 ,,-30.035518,-51.102367
6488,,Osvaldo Franca Junior Al 2190 ,,-30.035448,-51.102379
6459,,Osvaldo Franca Junior Al 1915 ,,-30.03562,-51.102996
6460,,Osvaldo Franca Junior Df 1897 ,,-30.035544,-51.102976
6670,,Adelino Ferreira Jardim 351 ,,-30.020435,-51.101178
6669,,Joao Pessoa 2472 ,,-30.050956,-51.208685
6667,,Pedro Ivo 774 ,,-30.029228,-51.186709
6668,,Furriel Luiz Antonio De Vargas Al 50 ,,-30.028374,-51.185022
5945,,Joao Antonio Silveira 4850 ,,-30.14344,-51.117579
6666,,Eng Frederico Dahne Df 525 ,,-30.008887,-51.136348
4466,,Joao Antonio Silveira Df 4760 ,,-30.143569,-51.117883
6665,,Eng Frederico Dahne Al 372 ,,-30.007342,-51.13621
524,,Wenceslau Escobar Df 2759 Mc Donald's,,-30.11233,-51.255207
493,,Wenceslau Escobar 3010 ,,-30.114681,-51.254387
3664,,Ernesto Neugebauer 72 ,,-29.992836,-51.192527
3692,,Ernesto Neugebauer Sn ,,-29.990169,-51.190046
3693,,Ernesto Neugebauer 515 ,,-29.9904,-51.190099
3663,,Ernesto Neugebauer Al 95 ,,-29.992647,-51.192234
6664,,Caetano Pedone Al 934 ,,-30.163229,-51.172399
6293,,Joao Antonio Silveira 2145 ,,-30.15455,-51.138208
682,,Juca Batista 110 ,,-30.135547,-51.223298
6663,,Praia De Belas Df 579 ,,-30.044544,-51.227471
3243,,Protasio Alves 6555 Restaurante,,-30.042559,-51.145947
3228,,Protasio Alves 6220 ,,-30.041752,-51.148439
3221,,Protasio Alves Df 6047 ,,-30.041443,-51.150838
3030,,Protasio Alves 5851 Vidros E Acessorios Japacar,,-30.041613,-51.153219
2831,,Seis Vila Fatima-pinto 48 ,,-30.050878,-51.152063
32,,Orleaes Df 560 ,,-30.162804,-51.224005
4886,,Bernardino Silveira De Amorim 1101 ,,-29.989879,-51.109434
1109,,Monte Cristo Df 446 ,,-30.11915,-51.212466
5996,,Capitao Pedroso 105 ,,-30.16514,-51.151692
2613,,Dolores Duran 1820 ,,-30.088771,-51.121499
6338,,Otavio Dutra 120 ,,-30.064891,-51.231224
2280,,Nilopolis 110 ,,-30.03838,-51.190807
3681,,A J Renner 1378 ,,-29.985743,-51.193746
3047,,Saturnino De Brito Al 136 ,,-30.039868,-51.154033
932,,Arroio Grande Al 95 ,,-30.100894,-51.230074
6657,,Willy Eugenio Fleck Al 850 ,,-29.998803,-51.119935
5339,,Senador Salgado Filho 247 ,,-30.030957,-51.225086
5337,,Senador Salgado Filho 229 ,,-30.030938,-51.225367
6124,,Carlos Silveira Martins Pacheco Df 114 Medplex,,-30.010837,-51.159278
1737,,Dawid Jozef Kapel 168 ,,-30.075923,-51.205656
5338,,Senador Salgado Filho 219 ,,-30.030928,-51.225509
5080,,Dawid Jozef Kapel 61 ,,-30.076149,-51.20583
6662,,Mil Setecentos Seis 1700 Ef Condominio Topazio,,-30.026505,-51.130359
6660,,Varejao 377 ,,-30.220398,-51.097168
1726,,Viamao Df 51 ,,-30.069482,-51.210229
2370,,Luzitana 1046 ,,-30.017623,-51.183929
4960,,Bernardino De Oliveira Paim 665 Colegio,,-29.997135,-51.100068
4052,,Dona Adda Mascarenhas De Moraes Al 45 ,,-30.010472,-51.135473
2369,,Marques Do Pombal 1853 ,,-30.018663,-51.185502
1531,,Maua Df Lab Wei Laboratorio Weinmann,,-30.029037,-51.234522
2560,,Santo Dias Da Silva Al 710 Creche,,-30.096972,-51.134572
5170,,Maias 207 Alcides Honorio Da Silveira,,-29.988153,-51.096014
5405,,Borges De Medeiros 617 ,,-30.031836,-51.22779
4086,,Sertorio Df 5757 ,,-29.997802,-51.146599
6658,,Furriel Luiz Antonio De Vargas 186 ,,-30.02777,-51.18325
1596,,Aureliano De Figueiredo Pinto Df 848 Mercado Nacional,,-30.043588,-51.222611
1558,,Aureliano De Figueiredo Pinto 575 ,,-30.043333,-51.225396
1559,,Aureliano De Figueiredo Pinto Df 575 ,,-30.043271,-51.225276
1551,,Aureliano De Figueiredo Pinto Nn 483 ,,-30.04314,-51.226654
1597,,Aureliano De Figueiredo Pinto 858 Mercado Nacional,,-30.043525,-51.222503
4718,,Sargento Silvio Delmar Hollenbach 683 ,,-30.022205,-51.109893
6513,,Aureliano De Figueiredo Pinto 501 ,,-30.043226,-51.226515
6223,,Varejao 601 ,,-30.221226,-51.092296
5587,,Joao De Oliveira Remiao Df 1048 ,,-30.085703,-51.131751
2600,,Joao De Oliveira Remiao 1058 ,,-30.085596,-51.131665
3133,,Forte 1278 ,,-30.02203,-51.151494
6572,,Gedeon Leite Df 1560 ,,-30.151114,-51.177172
170,,Heitor Vieira Df 506 Praça,,-30.211073,-51.182447
171,,Heitor Vieira 474 Igreja,,-30.210863,-51.182823
4158,,Chateaubriand Df 179 ,,-30.016296,-51.122761
2730,,Prof Pedro Santa Helena 80 ,,-30.050729,-51.170844
396,,Chacara Do Banco 100 ,,-30.163899,-51.144924
6457,,Osvaldo Franca Junior Al 80 ,,-30.0356,-51.104305
6656,,Esporte Clube Cruzeiro Df 103 ,,-30.042244,-51.128861
328,,Costa Gama Df 6570 ,,-30.156518,-51.160955
3665,,Frederico Mentz Df 738 ,,-29.98927,-51.199874
6183,,Ten Ary Tarrago 1575 ,,-30.027813,-51.131989
6182,,Ten Ary Tarrago Al 1632 ,,-30.027902,-51.132112
2902,, Sul-norte Estação Viaduto,,-30.038447,-51.173741
6655,, Norte-sul Estação Viaduto,,-30.038721,-51.17374
2901,,Protasio Alves  ,,-30.038499,-51.173974
5509,,Clemente Pereira 279 ,,-30.071142,-51.167275
4636,,Seis De Novembro 406 Toque Feminino Cabeleireira,,-30.033138,-51.117275
2946,,Plinio Brasil Milano Ef Praça ,,-30.019442,-51.177699
2751,,Nove De Junho 1000 ,,-30.071296,-51.16115
4664,,Martim Felix Berta 2575 ,,-30.031276,-51.113485
5667,,Adelino Ferreira Jardim 48 ,,-30.021019,-51.107296
6016,,Dr Vargas Neto 350 ,,-30.020693,-51.108132
5676,,Rio Grande 68 ,,-30.128872,-51.202585
4728,,Wolfram Metzler Al 32 ,,-30.021297,-51.106468
6654,,Padre Leopoldo Brentano Df 537 ,,-29.976107,-51.193226
4832,,Dr Meer Mario Kaufmann Al 80 ,,-30.001025,-51.104486
2565,,Sao Francisco Df 1259 Comun Católica São Fco. De Assis,,-30.093338,-51.135232
984,,Dr Campos Velho 1751 ,,-30.094157,-51.228801
985,,Dr Campos Velho 1500 ,,-30.093382,-51.231053
868,,Dr Campos Velho 1247 ,,-30.092774,-51.233353
4465,,Armando Inacio Da Silveira 5900 ,,-30.204205,-51.020828
3490,,Sebastiao Barreto Al 36 ,,-30.020152,-51.126245
2586,,Santo Dias Da Silva 105 ,,-30.093856,-51.130881
4129,,Gomes De Carvalho 302 ,,-30.01418,-51.127166
3469,,Sebastiao Barreto 256 ,,-30.021784,-51.126376
4860,,Francisco Silveira Bitencourt Nn 1818 Ef Cond. Vida Alegre,,-29.991644,-51.110851
3691,,Edu Chaves Sn A 156m Av Estados Sn Próx. R.d.teodora,,-29.997479,-51.188486
942,,Gramado 294 ,,-30.10172,-51.228285
941,,Gramado Nn 341 ,,-30.102115,-51.228234
770,,Otto Niemeyer Al 1805 ,,-30.105401,-51.240842
5739,,Poa-cidade Joia 306 ,,-30.023765,-51.117185
6014,,Dr Vargas Neto 120 ,,-30.018309,-51.107896
6653,,Espir Rivaldo Nn 238 A 140 M Da Trav. Esporte Clube Cruzeiro,,-30.042682,-51.127385
5756,,Diario De Noticias Sn ,,-30.085832,-51.247535
5757,,Diario De Noticias 500 Ef Torre Barra Shopping Sul,,-30.085547,-51.247463
4271,,Toledo Piza Df 998 ,,-29.981519,-51.133604
6494,,Afonso Lourenco Mariante 4441 Dmae ,,-30.101887,-51.143036
6652,,Morro Alto 175 ,,-30.138405,-51.211889
6194,,A J Renner Al 22 ,,-29.99728,-51.197557
6647,,Nilo Ruschel 56/66 ,,-30.040818,-51.132469
4709,,Martim Felix Berta 952 ,,-30.024956,-51.107765
6561,,Irma Teresilda Steffen Df Rua 22 ,,-30.025809,-51.11814
2755,,Nove De Junho 664 ,,-30.068038,-51.161824
2029,,Ipiranga 5500 3 Perimetral,,-30.057975,-51.184462
2030,,Ipiranga 5500 3 Perimetral - Canteiro Central,,-30.057516,-51.184162
2028,,Dr Salvador Franca Al Quartel Esq. Ipiranga,,-30.058353,-51.184158
4325,,Varejao Df 825 ,,-30.221772,-51.087641
4326,,Varejao 829 ,,-30.221903,-51.087214
1289,,Prof Oscar Pereira Df 3841 M. Alpes,,-30.082819,-51.196476
412,,Joao Antonio Silveira 1134 ,,-30.158827,-51.146569
38,,Serraria 2140 ,,-30.162264,-51.219561
1068,,Campo Novo Df 540 ,,-30.139249,-51.21358
3723,,Padre Leopoldo Brentano 436 ,,-29.975851,-51.194587
1130,,Cristiano Kraemer 1700/1712 ,,-30.129833,-51.200691
806,,Camaqua 557 ,,-30.104516,-51.239015
6646,,Jacui Al 903 Df Cras Cristal,,-30.0791,-51.237788
823,,Dr Pereira Neto 1870 ,,-30.105886,-51.233967
822,,Dr Pereira Neto 1823 ,,-30.106137,-51.234455
819,,Escobar 554 ,,-30.106001,-51.235338
173,,Heitor Vieira Df 770 ,,-30.211905,-51.180747
6645,,Atanasio Belmonte Al 420 ,,-30.018528,-51.171422
6644,,Libero Badaro Df 388 ,,-30.020827,-51.17129
6643,,Luiz Cosme 238 ,,-30.019251,-51.169086
2165,,Mariante 587 ,,-30.033121,-51.204174
4068,,Dona Alzira 330 ,,-30.00653,-51.138075
736,,Otto Niemeyer Df 1066 ,,-30.107865,-51.248006
6642,,Inacio Antonio Da Silva 36 ,,-30.212127,-51.179996
2040,,Barao Do Amazonas 1185 ,,-30.054106,-51.188861
2047,,Barao Do Amazonas 1049 ,,-30.052923,-51.188211
2167,,Independencia 519 ,,-30.029312,-51.216006
990,,Monte Arraes 22 ,,-30.09063,-51.230055
6451,,Otto Niemeyer 3427 ,,-30.10104,-51.228005
1672,,Sepe Tiaraju 1546 ,,-30.080085,-51.213274
1698,,Sepe Tiaraju Df Pça Montese ,,-30.072636,-51.214461
1700,,Sepe Tiaraju 362 ,,-30.070469,-51.214696
1699,,Sepe Tiaraju 395 ,,-30.071117,-51.214639
1704,,Sepe Tiaraju 204 ,,-30.06953,-51.214642
1681,,Sepe Tiaraju 831 ,,-30.074766,-51.214806
5115,,Egidio Piccoli 154 ,,-30.045597,-51.106053
5114,,Egidio Piccoli 70 ,,-30.043332,-51.1059
5113,,Tres Jardim Protasio Alves 711 ,,-30.046892,-51.106503
5112,,Tres Jardim Protasio Alves 65 ,,-30.043251,-51.107035
2205,,Mostardeiro Df 84 ,,-30.028839,-51.206546
4374,,Quirinas 1290 ,,-30.187149,-51.09403
4373,,Quirinas 351 ,,-30.186087,-51.093147
6635,,Quirinas Df 457 ,,-30.183287,-51.089499
6399,,Quirinas Df 760 ,,-30.182058,-51.087978
6398,,Quirinas 800 ,,-30.180314,-51.084866
4397,,Quirinas 1703 ,,-30.176642,-51.082552
4398,,Quirinas Df Rua Rubi Df Rua 1,,-30.173352,-51.08167
4404,,Quirinas 50 ,,-30.172188,-51.08138
6638,,Quirinas Df Rua Manoel S. ,,-30.170678,-51.080804
4406,,Quirinas Al 5022 ,,-30.166514,-51.080702
4407,,Quirinas Df 3559 ,,-30.164018,-51.079654
4410,,Quirinas 3000 Seara Plantas E Flores,,-30.159283,-51.079527
6397,,Quirinas Al 2200 ,,-30.156851,-51.081967
4411,,Quirinas Df 2300 E E E Fundamental Solimoes,,-30.155488,-51.08409
4412,,Quirinas 2300 E E E Fundamental Solimoes,,-30.155414,-51.084063
4384,,Quirinas 1200 ,,-30.153529,-51.086168
5700,,Quirinas 950 Dmae ,,-30.152298,-51.087465
5761,,Quirinas 819/859 ,,-30.151444,-51.088786
4535,,Quirinas Al 599 Mecanica Miracar,,-30.14765,-51.088064
4534,,Quirinas 450 ,,-30.146074,-51.086574
4537,,Quirinas Df 53 ,,-30.143471,-51.085531
6634,,Fernando Cortez Al 54 ,,-30.010781,-51.157024
5930,,Jd. Outeiral  ,,-30.133902,-51.094175
4532,,Jd. Outeiral  Escola,,-30.134002,-51.094344
3777,,Brasiliano Indio De Moraes 363 ,,-30.011064,-51.175402
5926,,Jd. Outeiral  ,,-30.134111,-51.09453
5927,,Jd. Outeiral  ,,-30.134151,-51.094602
5928,,Jd. Outeiral  ,,-30.134284,-51.094856
4713,,Wolfram Metzler 502 ,,-30.024709,-51.104246
4712,,Wolfram Metzler Df 478 ,,-30.024772,-51.10455
6633,,Joao De Oliveira Remiao Df 2190 Parada 04-A,,-30.095296,-51.12756
6632,,Joao De Oliveira Remiao 2190 Parada 04-A,,-30.095092,-51.12767
1541,,Aureliano De Figueiredo Pinto Al 100 Ef Estac. Da Pge,,-30.04281,-51.230366
6518,,Edgar Pires De Castro 3901 ,,-30.164044,-51.15549
5334,,Senador Salgado Filho 248 ,,-30.030889,-51.22502
3009,,Dr Ernesto Ludwig 167 ,,-30.038522,-51.163701
5594,,Bento Goncalves Al 847/Df 876 ,,-30.052792,-51.204595
3888,,Adao Baino Df 373 ,,-30.01405,-51.155691
6630,,Adao Benedito Lopes Brandao 133 ,,-30.028296,-51.106224
6629,,Aureliano De Figueiredo Pinto Df 866 ,,-30.043593,-51.222554
6628,,Sociedade Libanesa Sn ,,-30.028112,-51.177091
3412,,Rev Daniel Betts Al 186 ,,-30.042369,-51.126086
6606,,Irmao Faustino Joao 1466 ,,-30.025184,-51.092017
6605,,Mil Novecentos Vinte Dois 39 ,,-30.026117,-51.091171
6604,,Arroio Feijo Df 75 ,,-30.026099,-51.089904
653,,Guaiba 1380 ,,-30.141331,-51.22708
6627,,Paulo Pontes 480 ,,-30.104936,-51.226712
2921,,Carlos Gomes 350 Esq. Anita Garibaldi,,-30.025034,-51.182877
5058,,Carlos Gomes 1130 ,,-30.031429,-51.179974
563,,Wenceslau Escobar 1286 Mercado Nacional,,-30.101162,-51.249452
6626,,Bombeiro 75 ,,-29.995481,-51.188559
5902,,Edgar Pires De Castro 2600 ,,-30.156342,-51.164974
2937,,Cristovao Colombo 3648 ,,-30.017005,-51.183643
321,,Edgar Pires De Castro 2653 ,,-30.156405,-51.164801
5755,,Diario De Noticias 500 ,,-30.086048,-51.24759
6425,,Paulo Pontes 608 ,,-30.106106,-51.226416
2125,,Sao Manoel 1387 ,,-30.045917,-51.203582
6424,,Paulo Pontes Df 413 ,,-30.103909,-51.226984
6609,,Irma Teresilda Steffen 195 ,,-30.025921,-51.117649
4743,,Wolfram Metzler 728/Df 620 ,,-30.024081,-51.102789
1086,,Ozorio Jose Martins 167 ,,-30.131097,-51.203139
3943,,Sertorio Al 4605 ,,-29.998533,-51.158832
921,,Otto Niemeyer 2771 ,,-30.102259,-51.231633
824,,Otto Niemeyer 2519 ,,-30.103111,-51.23411
808,,Otto Niemeyer Df 2250 ,,-30.104056,-51.236902
6162,,Frei Germano Df 46 ,,-30.061101,-51.167505
313,,Joao Antonio Silveira 80 ,,-30.165285,-51.154152
280,,Edgar Pires De Castro 967 ,,-30.155642,-51.18195
2629,,Ten Ary Tarrago Partenon 521 ,,-30.071292,-51.179759
287,,Edgar Pires De Castro Df 1425 Campos De Ipanema,,-30.155195,-51.176351
815,,Dr Barcelos Al 2144 ,,-30.101646,-51.237733
812,,Dr Barcelos 2012/2002 ,,-30.102141,-51.239192
3254,,Dr Otavio Santos Al 570 Pracinha,,-30.037903,-51.144477
3253,,Dr Otavio Santos 257 ,,-30.039195,-51.145023
4220,,Toledo Piza Df 445 Praça,,-29.986404,-51.133333
1028,,Orfanotrofio 1204 ,,-30.084188,-51.224538
6624,,Guaiba Df 13284 ,,-30.155633,-51.225352
26,,Guaiba Df Rua Jacipuia ,,-30.156385,-51.225757
5664,,Ten Ary Tarrago Df 1506 ,,-30.029433,-51.13266
2542,,Sao Francisco 61 ,,-30.100937,-51.142005
6119,,Cristiano Kraemer Df 2116 ,,-30.132919,-51.196903
2582,,Santo Dias Da Silva 267/269 ,,-30.094699,-51.131449
1285,,Eng Ludolfo Boehl 1660 ,,-30.083323,-51.197753
6598,,Bogota 362 ,,-30.007018,-51.148653
6621,,Lami 2640 ,,-30.213073,-51.152995
157,,Lami 2799 ,,-30.213135,-51.152893
561,,Dr Barcelos Df 889 ,,-30.105961,-51.250346
1108,,Atilio Supertti 377 ,,-30.118723,-51.212914
3302,,Ten Ary Tarrago Df 1054 ,,-30.032923,-51.134962
5232,,Barro Vermelho 904 ,,-30.163419,-51.14013
1262,,Belem Velho 3226 ,,-30.109974,-51.197143
6618,,Adelino Ferreira Jardim 203 ,,-30.021183,-51.105528
6620,,Venancio Aires Al 1151 ,,-30.037104,-51.209345
5568,,Assis Brasil Df 9000 Df Coca Cola,,-29.975046,-51.11468
6619,,Tres Meninas 1085 ,,-30.122081,-51.194487
1322,,Capivari Df 350 ,,-30.080266,-51.243767
876,,Capivari 587 ,,-30.082286,-51.240639
2588,,Joao De Oliveira Remiao Df 1979 C/Baia,,-30.092527,-51.130437
2595,,Joao De Oliveira Remiao 2001 Igreja Universal Pd 04,,-30.093084,-51.12995
1283,,Prof Carvalho Freitas 1453/Df 1458 ,,-30.082092,-51.198235
5530,,Loureiro Da Silva 1960/Df 1995 ,,-30.034924,-51.222386
6542,,Marechal Jose Inacio Da Silva 355 ,,-30.012013,-51.178689
1361,,Deputado Ruy Ramos Df 2118 Tvs,,-30.072725,-51.232709
1383,,Correa Lima 1216 ,,-30.069481,-51.224651
1410,,Correa Lima 1010 ,,-30.067961,-51.224206
6617,,Irmao Felix Roberto (Robertao) 100 ,,-29.986815,-51.187992
803,,Otto Niemeyer Df 1805 ,,-30.105349,-51.240923
3245,,Dr Otavio Santos 200 ,,-30.041441,-51.145211
3246,,Dr Otavio Santos Df 200 ,,-30.041427,-51.145129
5231,,Barro Vermelho 542 ,,-30.163078,-51.145364
5200,,Bernardino Silveira Pastoriza Df 751 ,,-29.990897,-51.101044
772,,Cel Claudino 584 ,,-30.098511,-51.242522
1794,,Prof Oscar Pereira 88 Igreja Universal Do Reino De Deus,,-30.051727,-51.212531
5235,,Dom Feliciano Df 24 ,,-30.029685,-51.222621
5233,,Dom Feliciano Df 78 ,,-30.029674,-51.222337
5238,,Dom Feliciano Df 285 ,,-30.029883,-51.222416
5239,,Dom Feliciano Df 285 ,,-30.030028,-51.222638
1651,,Prof Annes Dias 295 ,,-30.030211,-51.222654
3880,,Domingos Martins 433 ,,-30.006524,-51.161597
1655,,Sarmento Leite 77 Hospital Da Crianca Sto Antonio,,-30.029767,-51.219368
6356,,Furriel Luiz Antonio De Vargas Ef Hyundai ,,-30.026809,-51.180395
6616,,Jose Gertum 681 ,,-30.038667,-51.159439
6615,,Jose Gertum Df 544 ,,-30.037382,-51.16017
3020,,Jose Gertum Esq. R. Estácio Esq. Miracema,,-30.0365,-51.16061
3019,,Jose Gertum Df 278 ,,-30.035588,-51.162015
3012,,Jose Gertum 176 ,,-30.034942,-51.162926
3013,,Jose Gertum 28 ,,-30.034222,-51.164478
3015,,Lima Duarte 109 ,,-30.034758,-51.163807
3018,,Jose Gertum 638 ,,-30.038082,-51.159686
1414,,Francisco Massena Vieira 190 ,,-30.072892,-51.219269
2254,,Casemiro De Abreu Df 1337 ,,-30.033253,-51.194193
3651,,Dona Margarida Df 621/Al 636 ,,-29.999106,-51.196388
2605,,Joao De Oliveira Remiao 2725 Esc Rafaela Remiao,,-30.098047,-51.126093
3153,,Ipiranga 8901 ,,-30.063541,-51.150786
1094,,Romeu Samarani Ferreira Df 195 Colégio,,-30.127351,-51.209115
5933,,Joaquim De Carvalho Df 275 Praça Prof. Emilio  Nabilde Ripoll,,-30.115774,-51.219997
1121,,Rodrigues Da Fonseca 1695 ,,-30.116109,-51.209714
1125,,Ventos Do Sul Df 480 Praça,,-30.126923,-51.207457
858,,Cel Timoteo 127 ,,-30.097032,-51.236906
3140,,Forte 1112 ,,-30.020216,-51.151811
5572,,Santo Dias Da Silva 115 ,,-30.093926,-51.13093
5466,,Bento Goncalves 2447 ,,-30.060964,-51.19026
5742,,Barcellos 2301/Al 980 ,,-30.091195,-51.17818
1111,,Joao Salomoni Df 1365 ,,-30.115208,-51.213449
1140,,Cristiano Kraemer 87 ,,-30.117728,-51.206618
867,,Dr Campos Velho Df 950 ,,-30.092339,-51.236532
2212,,Goethe 11/13 ,,-30.029094,-51.200801
1806,,Prof Oscar Pereira 1434 ,,-30.062563,-51.206144
1761,,Prof Oscar Pereira 1824 ,,-30.066228,-51.205756
1324,,Capivari 433/443 ,,-30.081046,-51.242561
881,,Capivari 1033 ,,-30.083531,-51.237736
1336,,Jacui 1188 ,,-30.079902,-51.236167
887,,Capivari 1223 ,,-30.083558,-51.235677
1331,,Jacui Al 758 ,,-30.077999,-51.239381
5773,,Luiz Otavio 391 Escola Fundação Rincão,,-30.119032,-51.160574
2429,,Luiz Otavio 67 ,,-30.120049,-51.158813
1333,,Jacui Df 1001 Praça,,-30.079188,-51.23749
2102,,Osvaldo Aranha Df 904 Auditório Araujo Viana,,-30.034387,-51.213554
4667,,Martim Felix Berta 2235/Df 2280 ,,-30.03064,-51.111027
2463,,Prof Oscar Pereira Df 6688 ,,-30.097844,-51.176183
343,,Lami Df 4256 ,,-30.211431,-51.137396
344,,Lami 4256 ,,-30.211392,-51.137199
342,,Lami 4110/4112 ,,-30.211027,-51.138543
3279,,Souza Costa Sn ,,-30.045063,-51.136108
5850,,Abram Goldsztein 92 ,,-30.044418,-51.13664
5848,,Rodolpho Englert Ef Bloco 10 ,,-30.045144,-51.140946
4742,,Baltazar De Oliveira Garcia 3795 ,,-30.01634,-51.107672
5849,,Abram Goldsztein Sn ,,-30.046226,-51.139016
5925,,Jacui 598 ,,-30.077384,-51.241627
1399,,Gibran Khalil Gibran 190 ,,-30.077383,-51.220043
1384,,Gibran Khalil Gibran Al 82 Praça,,-30.077919,-51.22195
6613,,Gibran Khalil Gibran Al 34 ,,-30.076353,-51.218625
1389,,Joracy Camargo 783 ,,-30.07706,-51.22237
1402,,Joracy Camargo 553 ,,-30.076212,-51.220473
873,,Butui 190 ,,-30.086499,-51.238484
62,,Serraria 761 ,,-30.150301,-51.21775
2248,,Casemiro De Abreu Df 1146 Colegio Ipa,,-30.033168,-51.196527
6588,,Bage 1400 ,,-30.035651,-51.178807
61,,Serraria 830 ,,-30.150683,-51.217928
63,,Serraria 610 ,,-30.149501,-51.217092
4480,,Joao Antonio Silveira 6892 ,,-30.139302,-51.102239
6612,,Maias Al 755 ,,-29.994241,-51.094807
1620,,Jose Do Patrocinio 515 ,,-30.039482,-51.223533
1148,,Cristiano Kraemer Df 551 ,,-30.120225,-51.202654
3014,,Teixeira Mendes 766 ,,-30.033272,-51.164991
3580,,Tres Av Castelo Branco-voluntarios Df 302 Unifin,,-29.999212,-51.202785
5748,, Df 253 Ginásio De Esportes Arthur Winclert,,-29.998903,-51.203074
3577,,Tres Av Castelo Branco-voluntarios 113 ,,-29.998823,-51.204408
3844,,Joao Wallig 285 ,,-30.014196,-51.164773
4519,,Sao Pedro-lomba Do Pinheiro 533 ,,-30.114648,-51.102936
4601,,Sao Pedro-lomba Do Pinheiro 526 ,,-30.114575,-51.103034
4516,,Sao Pedro-lomba Do Pinheiro Al 274 ,,-30.114647,-51.105744
4511,,Sao Pedro-lomba Do Pinheiro 245 ,,-30.114751,-51.10602
4509,,Sao Pedro-lomba Do Pinheiro Al 70 ,,-30.115088,-51.108506
5630,,Martins De Lima 996 ,,-30.070539,-51.168049
4510,,Sao Pedro-lomba Do Pinheiro 75 ,,-30.115106,-51.108174
5629,,Martins De Lima Df 1056 ,,-30.071005,-51.168052
6611,,Taquary 160 ,,-30.075556,-51.241652
2005,,Ipiranga Al 4017 Vieceli Automoveis,,-30.053035,-51.193534
2006,,Ipiranga 3914 Plasticos Brasil,,-30.052491,-51.193231
6037,,Ipiranga 3780 ,,-30.051113,-51.194217
2003,,Ipiranga 3849 Gauderio Veiculos,,-30.050964,-51.195018
2237,,Ipiranga 3420 Simers,,-30.049185,-51.195567
2233,,Ipiranga 3377 ,,-30.048878,-51.196486
5179,,Ipiranga 3330/Df 3161 ,,-30.047027,-51.197061
2236,,Ipiranga Df 2881 Estacionamento Zaffari,,-30.044638,-51.19873
5826,,Joao De Oliveira Remiao Df 7807 ,,-30.128502,-51.098723
2145,,Ipiranga Ef Pça Visc. De Praca Visconde De Taunay,,-30.043651,-51.200652
2146,,Ipiranga Al 2640 ,,-30.043214,-51.200273
2143,,Ipiranga 2485 ,,-30.043546,-51.203157
2144,,Ipiranga Ef Ginasio Bm Ginásio Da Brigada,,-30.043012,-51.203357
2130,,Ipiranga 2752 Entrada Lateral Faculd De Farmacia Ufrgs,,-30.043412,-51.206469
2127,,Ipiranga 2555 Crea-rs,,-30.044383,-51.207038
2126,,Ipiranga 2000/Df 2511 Planetario Ufrgs,,-30.044369,-51.208097
2231,,Ipiranga 2899/Al 2885 ,,-30.045351,-51.198941
2085,,Ipiranga 1813 Garagem Polícia Civil,,-30.046064,-51.209901
2078,,Ipiranga 1801 Hospital Ernesto Dornelles,,-30.047414,-51.212159
2081,,Ipiranga 1600 Michelin Pneus,,-30.046086,-51.211036
3386,,Protasio Alves 8129 ,,-30.04087,-51.130499
2252,,Neusa Goulart Brizola 100 ,,-30.039336,-51.196673
6164,,Artur Rocha 1107 ,,-30.031989,-51.188283
6279,,Edgar Pires De Castro Df 1780 ,,-30.155684,-51.174257
622,,Cel Marcos 2447/2449 ,,-30.131947,-51.234241
2067,,Ipiranga 1489 ,,-30.047871,-51.214194
2066,,Ipiranga Df 1365 Procempa,,-30.047417,-51.214961
1606,,Ipiranga 1145 Mensageiro Da Caridade,,-30.048228,-51.216988
1607,,Ipiranga Ef Eptc Fundos Da Eptc,,-30.04765,-51.21677
6607,,Ipiranga Prox Erico Ver. ,,-30.04789,-51.218658
1592,,Ipiranga Al 725 ,,-30.048604,-51.220674
1593,,Ipiranga 702/704 Ed Martin Fierro,,-30.048037,-51.221099
1589,,Ipiranga 490 ,,-30.047849,-51.22343
1548,,Ipiranga 341/Al 321 ,,-30.048302,-51.224623
1590,,Ipiranga 585 Lar São Domingos,,-30.048506,-51.222107
5025,,Ipiranga Ef Bpm ,,-30.047553,-51.227157
1544,,Ipiranga Df Bpm Trt 4a Região,,-30.048109,-51.227041
1543,,Ipiranga 93 Ef Praia De Belas Shopping,,-30.047977,-51.228663
5628,,Martins De Lima 131/Df 830 ,,-30.06891,-51.168439
5517,,Martins De Lima 635/Al 627 ,,-30.067273,-51.168736
5520,,Martins De Lima Al 830 ,,-30.068855,-51.168366
1071,,Campo Novo Df 1085 ,,-30.135635,-51.211565
43,,Serraria 2222 ,,-30.163067,-51.218204
3588,,Frederico Mentz 927 ,,-29.990313,-51.200242
5318,,Senador Salgado Filho Df 160 ,,-30.030896,-51.225974
5328,,Senador Salgado Filho 135 ,,-30.03088,-51.226214
5287,,Senador Salgado Filho 111 ,,-30.030856,-51.226567
5286,,Senador Salgado Filho 119 ,,-30.03087,-51.226354
5317,,Senador Salgado Filho Df 48 ,,-30.030805,-51.227246
5851,,Souza Costa 202 ,,-30.044698,-51.136201
847,,Diario De Noticias Df 300 Df Big,,-30.083189,-51.246945
848,,Diario De Noticias Sn Big/Barra Shopping,,-30.083711,-51.246994
1911,,Paulino Azurenha 1110 ,,-30.069269,-51.196895
3503,,Leopoldino J Santos Df 399 ,,-30.017379,-51.122397
521,,Wenceslau Escobar 2865 ,,-30.113362,-51.25505
2113,,Osvaldo Aranha Df 1262 Hospital De Pronto Socorro,,-30.036269,-51.209913
2103,,Osvaldo Aranha 894 Ao 924 Redencao - Araujo Viana,,-30.034509,-51.213319
2111,,Osvaldo Aranha 1244 Hospital De Pronto Socorro,,-30.035862,-51.210543
2101,,Osvaldo Aranha Df 828 Auditorio Araújo Viana,,-30.034003,-51.214125
1634,,Osvaldo Aranha Df 522 Estação Instituto De Educacao - Ufrgs,,-30.033085,-51.216905
1633,,Osvaldo Aranha 480 Estação Instituto De Educacao - Ufrgs,,-30.032867,-51.217564
6602,,Euclides Triches Sn ,,-30.044639,-51.137728
6544,,Gabriel Franco Da Luz Sn Cb ,,-29.98196,-51.123413
6601,,Fumaca Df 997 ,,-30.032429,-51.106213
5671,,Adelino Ferreira Jardim 526 ,,-30.02046,-51.101517
757,,Dr Castro De Menezes 1033 ,,-30.1049,-51.247949
6599,,Cavalhada 4890 ,,-30.118795,-51.22419
6600,,Dr Castro De Menezes 994 ,,-30.104545,-51.247979
725,,Cavalhada 4839 ,,-30.118425,-51.224331
721,,Cavalhada Df 4721 ,,-30.117997,-51.224315
997,,Nonoai 1676 ,,-30.094809,-51.225019
5057,,Carlos Gomes Al 1348 ,,-30.033117,-51.178791
5767,,Alberto Ramos Df 926 ,,-30.020793,-51.18211
865,,Cel Massot Df 1329 ,,-30.097913,-51.235314
6543,,Gabriel Franco Da Luz Sn Bc ,,-29.981995,-51.123493
6597,,Bogota 110 ,,-30.009489,-51.148922
6596,,Montreal 407 ,,-30.005919,-51.150019
6594,,Panamericana 337 ,,-30.007056,-51.151178
3061,,Joao Wallig 2132 ,,-30.029149,-51.164183
6595,,Panamericana 101 ,,-30.008913,-51.151072
1113,,Atilio Supertti 712 ,,-30.122249,-51.212133
1112,,Atilio Supertti 821 ,,-30.122964,-51.212023
1098,,Atilio Supertti 880 ,,-30.123586,-51.211795
5789,,Derocy Giacomo Da Silva 110 ,,-30.126023,-51.211386
1095,,Derocy Giacomo Da Silva 30 ,,-30.125723,-51.211363
5788,,Romeu Samarani Ferreira 195 ,,-30.127422,-51.209093
1099,,Ventos Do Sul 265 ,,-30.125122,-51.20818
1126,,Ventos Do Sul 290 ,,-30.125338,-51.208002
1100,,Ventos Do Sul 100 ,,-30.123636,-51.208679
6593,,Jose Aristides Martins 47 ,,-30.145254,-51.211893
3062,,Joao Wallig 2145 ,,-30.02945,-51.164647
415,,Barro Vermelho 581 ,,-30.163079,-51.14436
5766,,Sampaulo 275 ,,-30.020762,-51.116692
2027,,Dr Salvador Franca  Esq. Bento Goncalves,,-30.063203,-51.18541
2021,,Cel Aparicio Borges  Esq. Bento Golcalves,,-30.063492,-51.185512
6419,,Sampaulo Df 285 ,,-30.020697,-51.116603
17,,Geralda Dos Santos Moreira Df 175 ,,-30.162738,-51.226472
3265,,Protasio Alves 7163 ,,-30.043944,-51.142012
673,,Capao Da Canoa Df 157 ,,-30.131508,-51.225297
3277,,Protasio Alves 7500 Conj Resid Villagio Di Milan,,-30.043102,-51.138069
3284,,Protasio Alves 7585 ,,-30.042427,-51.135072
3420,,Protasio Alves Al 8725 Sul Moveis,,-30.039365,-51.124462
2221,,Cristovao Colombo 1615 ,,-30.018276,-51.20412
2220,,Cristovao Colombo 1512 ,,-30.019018,-51.205989
514,,Copacabana 58 ,,-30.105696,-51.26033
5492,,Dr Nilo Pecanha 2576 ,,-30.028089,-51.166375
2955,,Dr Nilo Pecanha Al 1900 ,,-30.027541,-51.172313
2954,,Dr Nilo Pecanha 1851 ,,-30.02759,-51.172438
2924,,Dr Nilo Pecanha Al 1393 Colegio Anchieta Ginasio De Esportes,,-30.028692,-51.178061
2926,,Dr Nilo Pecanha 1521 Ef Colégio Anchieta,,-30.02815,-51.176176
2923,,Dr Nilo Pecanha Df 1367 Posto Ipiranga,,-30.028728,-51.17845
2927,,Dr Nilo Pecanha Df 1521 Df Colégio Anchieta,,-30.028039,-51.176049
4107,,Sertorio 7070 ,,-29.998417,-51.135905
6228,,Indiana Pça Cel Oscar Sa ,,-30.021822,-51.15529
2864,,Palmeira 248 ,,-30.038405,-51.178887
6592,,Joao Caetano 79 ,,-30.037253,-51.177347
6591,,Lageado 521 ,,-30.039946,-51.186114
6590,,Lageado 361 ,,-30.03941,-51.184291
6589,,Bage 1088 ,,-30.037495,-51.180004
4017,,Gomes De Freitas 245 ,,-30.012279,-51.143245
5056,,Carlos Gomes 1361 ,,-30.033182,-51.178806
1062,,Juca Batista Al 1856 Motel,,-30.146497,-51.21024
288,,Edgar Pires De Castro 1405 Campos De Ipanema,,-30.155255,-51.176516
5099,,Juca Batista Al 4330 Figueira/Casa Branca,,-30.158496,-51.191949
692,,Eduardo Prado 2165 ,,-30.137633,-51.220028
694,,Eduardo Prado 1954 ,,-30.135826,-51.219127
695,,Eduardo Prado 1971 ,,-30.13601,-51.219303
6245,,Eduardo Prado 1663 ,,-30.133521,-51.21832
696,,Eduardo Prado 1541 ,,-30.132217,-51.218082
717,,Eduardo Prado 900 Dmae ,,-30.127421,-51.219559
711,,Eduardo Prado 784 ,,-30.125635,-51.219951
5441,,Eduardo Prado Df 724 Dmae/814 ,,-30.126412,-51.220047
693,,Eduardo Prado 2170 ,,-30.137697,-51.219967
4093,,Sertorio Df 6315 ,,-29.997745,-51.143873
722,,Eduardo Prado 126 ,,-30.12073,-51.223346
930,,Cavalhada 2517 ,,-30.099189,-51.231457
2350,,Silva Jardim 148 ,,-30.023243,-51.1904
3250,,Francisco De Aquino 169 ,,-30.034664,-51.149597
6263,,Francisco De Aquino 20 ,,-30.034231,-51.150872
6265,,Francisco De Aquino 156 ,,-30.034509,-51.149334
6264,,Francisco De Aquino 53 ,,-30.034462,-51.150658
3897,,Dom Diogo De Souza 483 ,,-30.014854,-51.154603
6587,,Antonio Joaquim Mesquita 524 ,,-30.015633,-51.161321
6510,,Conselheiro D'avila Df 669 ,,-29.999582,-51.156505
4740,,Martim Felix Berta 337 ,,-30.019492,-51.107284
4722,,Martim Felix Berta 789 ,,-30.023784,-51.107724
6586,,Santa Flora Esq R. Monte Arr ,,-30.09124,-51.228868
1239,,Dr Ney Cabral Df 343 ,,-30.088166,-51.212936
5513,,Clemente Pereira 1270 ,,-30.070413,-51.162427
5514,,Clemente Pereira 1303 ,,-30.0705,-51.162068
5627,,Clemente Pereira 1019 ,,-30.070764,-51.164356
5511,,Clemente Pereira 455 ,,-30.070945,-51.165495
5510,,Clemente Pereira 452 ,,-30.070863,-51.165444
5512,,Clemente Pereira Df 1008 ,,-30.070713,-51.164463
5508,,Clemente Pereira Df 271 ,,-30.071092,-51.167432
3174,,Antonio Carvalho 960 ,,-30.056166,-51.147554
2989,,Sao Lucas 420 ,,-30.044908,-51.167124
2990,,Sao Lucas 295 ,,-30.043608,-51.167078
3155,,Antonio Carvalho 333 ,,-30.063315,-51.149626
2991,,Sao Lucas Df 295 ,,-30.043566,-51.166992
2674,,Juarez Tavora 406 ,,-30.065709,-51.173854
2675,,Juarez Tavora 427 Ferragem Conte,,-30.065971,-51.173887
2706,,Juarez Tavora 44 ,,-30.06465,-51.173788
5747,,Marechal Mallet 291 ,,-30.064628,-51.172079
2705,,Juarez Tavora Df 54 Praça,,-30.064608,-51.173856
2709,,Marechal Mallet 306 Esc Educacao Infantil Turma Do Barulho,,-30.064508,-51.171706
5097,,Marechal Mallet 135 Pça. Fco. Alves,,-30.064481,-51.173189
2737,,Santa Teresa Vl Sao Jose Comunitaria Df 492/498 Esc Mun 1 Grau Morro Da Cruz,,-30.077804,-51.160416
2741,,Ernesto Araujo 1450/Al 850 Mercado,,-30.075375,-51.161695
2677,,Angelo Barcelos 659 ,,-30.066833,-51.172644
6307,,Angelo Barcelos 642 ,,-30.066739,-51.172614
2742,,Nove De Junho 1638 Caixa Da Agua,,-30.076825,-51.160135
2738,,Vinte Cinco De Julho Vl S Jose Com Df 1760 ,,-30.076855,-51.161824
2743,,Nove De Junho 1555 ,,-30.075174,-51.160625
2750,,Nove De Junho 1181 ,,-30.072848,-51.160982
5990,,Nove De Junho 989 ,,-30.071507,-51.161201
2752,,Nove De Junho 845 ,,-30.069709,-51.161633
2753,,Nove De Junho Df 1075 ,,-30.072521,-51.160956
519,,Pereira Passos Df 520 Praça,,-30.101586,-51.259096
487,,Prof Cecilia Corseuil Df 285 ,,-30.117112,-51.256344
2669,,Luiz Moschetti 807 ,,-30.073282,-51.17422
2647,,Dr Manoel Jose Lopes Fernandes 203 ,,-30.075254,-51.174376
2654,,Ten Castelo 12 Igreja Batista Fundamental,,-30.074626,-51.173246
6585,,Ten Ary Tarrago Df 329 ,,-30.039363,-51.13556
3749,,Eng Alexandre Martins Da Rosa Al Portão 12 ,,-29.977775,-51.183897
1189,,Tres Meninas Df 379 ,,-30.118659,-51.199378
6584,,Tres Meninas 279 ,,-30.118708,-51.200387
6283,,Tres Meninas 379 ,,-30.118731,-51.199272
6581,,Xavier De Carvalho 83 ,,-29.994523,-51.131103
6580,,Xavier De Carvalho 52 ,,-29.994736,-51.130779
3884,,Edmundo Bastian Df 826 ,,-30.004161,-51.159343
5507,,Santa Maria 282 ,,-30.064571,-51.167134
6408,,Francisco Massena Vieira Df 222 ,,-30.072712,-51.21941
2652,,Saibreira 65 Df Praca,,-30.077537,-51.172884
2653,,Saibreira Al 10 Escola,,-30.076284,-51.173312
1971,,Sargento Mario Lopes 452 ,,-30.068956,-51.184371
2626,,Sargento Mario Lopes 34 ,,-30.070657,-51.181925
5905,,Sargento Mario Lopes Df 42/Al 28 ,,-30.070088,-51.182726
2649,,Luiz Moschetti 947 ,,-30.073916,-51.173323
2640,,Luiz Moschetti 620 ,,-30.072217,-51.175698
2668,,Luiz Moschetti 730 ,,-30.073002,-51.17451
2639,,Luiz Moschetti 619 ,,-30.072333,-51.175662
555,,Pereira Passos 1047 ,,-30.103211,-51.254205
556,,Pereira Passos Df 1025 ,,-30.10311,-51.254289
557,,Pereira Passos 742 ,,-30.102258,-51.256834
520,,Pereira Passos Al 520 ,,-30.101488,-51.25916
552,,Pereira Passos Df 848 Praça,,-30.102525,-51.256281
512,,Pereira Passos 331 ,,-30.100863,-51.261318
510,,Pereira Passos 104 ,,-30.100119,-51.263347
518,,Pereira Passos Al 382 ,,-30.1011,-51.260366
1642,,Siqueira Campos 1185 ,,-30.028158,-51.229879
1532,,Siqueira Campos Al 867 ,,-30.029176,-51.232883
1529,,Siqueira Campos 627 Agência De Correios,,-30.030096,-51.2356
1527,,Siqueira Campos Al Tce Tribunal De Contas,,-30.03045,-51.236599
784,,Dr Mario Totta 2291 ,,-30.108763,-51.238027
779,,Dr Mario Totta 2129 ,,-30.10928,-51.239484
753,,Dr Mario Totta 1981 ,,-30.109809,-51.24099
734,,Dr Mario Totta 1426 ,,-30.111643,-51.246361
741,,Dr Mario Totta 1646 ,,-30.110851,-51.244192
732,,Dr Mario Totta 1252 ,,-30.112244,-51.248065
543,,Dr Mario Totta 1100/1110 ,,-30.112754,-51.249486
522,,Dr Mario Totta 648 ,,-30.114385,-51.253986
539,,Dr Mario Totta Sn ,,-30.113481,-51.251489
2472,,Barcellos 2258 ,,-30.089668,-51.179476
2646,,Dr Manoel Jose Lopes Fernandes 236 ,,-30.075485,-51.174527
2648,,Ten Castelo 78 ,,-30.074794,-51.173398
637,,Dona Paulina Df 471/Df 481 ,,-30.115756,-51.247618
634,,Dona Paulina Df 370 ,,-30.114836,-51.248175
635,,Dona Paulina 340 ,,-30.114699,-51.248146
636,,Dona Paulina 463 ,,-30.115708,-51.247736
6579,,Jaguari 75 ,,-30.081492,-51.234294
902,,Joao Mora 318 ,,-30.108384,-51.232286
901,,Joao Mora 480 ,,-30.109815,-51.23157
900,,Joao Mora 385 ,,-30.108985,-51.232073
802,,Joao Mora 192 ,,-30.107239,-51.232884
801,,Joao Mora 181/Df 172 ,,-30.107197,-51.232957
2625,,Presidio 1100 Presidio,,-30.070941,-51.182256
1965,,Presidio Sn Entrada Bm Choque,,-30.070108,-51.185525
1964,,Presidio 150 Canil Do Boe-bm,,-30.069609,-51.186462
1968,,Presidio Al 314 Bm Choque,,-30.070566,-51.184484
899,,Cel Hilario Pereira Fortes Df 84 ,,-30.111974,-51.230517
1950,,Mario De Artagao 388 ,,-30.067454,-51.191651
1932,,Mario De Artagao Al 335 ,,-30.067189,-51.192164
1931,,Mario De Artagao Nn 223 Ferragem Alternativa,,-30.066477,-51.193187
1951,,Mario De Artagao Nn 455/Df 418 E E De Ensino Fundamental Jose C,,-30.067641,-51.191519
1927,,Mario De Artagao 102 ,,-30.065815,-51.193984
2638,,Cel Rego Df 32 ,,-30.072706,-51.177022
2637,,Cel Rego 25 ,,-30.072299,-51.176792
895,,Dante Gabriel Guimaraens Esq. Rua Bondade ,,-30.112137,-51.231483
2183,,Independencia 993 Cruz Vermelha,,-30.029284,-51.210979
4608,,Taquara 1572 ,,-30.109665,-51.102055
4618,,Taquara Df 1296 ,,-30.11214,-51.100747
4560,,Taquara 849 ,,-30.116029,-51.101513
4513,,Taquara 208/238 ,,-30.121745,-51.103265
4517,,Taquara 675 ,,-30.1175,-51.102239
6220,,Schneider 1501 ,,-30.16274,-51.168726
290,,Schneider 916 ,,-30.163666,-51.172458
5155,,Comendador Castro 464 ,,-30.135454,-51.225476
668,,Tramandai 899/Al 869 ,,-30.136996,-51.225576
5154,,Comendador Castro 515 ,,-30.135418,-51.225267
665,,Tramandai Df 667 ,,-30.135429,-51.227336
6132,,Tramandai 850/Df 841 ,,-30.136471,-51.225864
666,,Tramandai 667 ,,-30.135555,-51.22726
659,,Tramandai 480 ,,-30.134676,-51.228765
5325,,Tramandai 336/Df 315 ,,-30.133939,-51.230156
655,,Tramandai 175 ,,-30.133099,-51.2319
654,,Tramandai 142/Al 128 ,,-30.132854,-51.2322
133,,Celestino Bertolucci 510 ,,-30.161039,-51.199606
135,,Celestino Bertolucci 290 ,,-30.158921,-51.198926
658,,Tramandai 395 ,,-30.134239,-51.22975
134,,Celestino Bertolucci 315 ,,-30.1591,-51.199067
137,,Celestino Bertolucci 145 ,,-30.157469,-51.198467
136,,Celestino Bertolucci Df 185 ,,-30.157875,-51.198599
138,,Celestino Bertolucci Al 65 ,,-30.15676,-51.197895
139,,Celestino Bertolucci Df 25 ,,-30.156519,-51.197621
441,,Barro Vermelho 908/Df 761 ,,-30.163276,-51.141703
416,,Barro Vermelho 575 ,,-30.162967,-51.143483
4585,,Taquara Df 4085 ,,-30.104898,-51.115112
4586,,Taquara 4909/4046 ,,-30.104818,-51.115029
4587,,Taquara 3986 ,,-30.105138,-51.11363
4589,,Taquara 28 ,,-30.105175,-51.112553
5935,,Taquara 1726 ,,-30.108555,-51.103464
4617,,Taquara 1296 ,,-30.112168,-51.100834
5138,,Taquara Df Escola Escola São Pedro,,-30.113184,-51.100877
4562,,Taquara 933 ,,-30.115244,-51.101152
4518,,Taquara 728 ,,-30.117208,-51.10216
4561,,Taquara Df 921 ,,-30.115278,-51.101254
4514,,Taquara 516 ,,-30.119347,-51.102906
4512,,Taquara 147 ,,-30.121859,-51.103199
6209,,Taquara Al 57 ,,-30.123033,-51.103503
6118,,Dom Pedro Ii 162 ,,-30.008679,-51.189868
2284,,Ijui 578 ,,-30.038545,-51.187356
1567,,Washington Luiz Df 1118 ,,-30.037559,-51.228927
322,,Schneider 2240 ,,-30.16059,-51.160915
318,,Schneider 1872 ,,-30.161489,-51.164291
304,,Schneider 1516 ,,-30.162826,-51.169323
6201,,Schneider Al 797 ,,-30.164322,-51.174599
5110,,Schneider 764 ,,-30.164411,-51.175238
289,,Schneider Df 978 ,,-30.163524,-51.171652
6392,,Schneider 636 ,,-30.164267,-51.176883
258,,Schneider 490 ,,-30.163826,-51.178171
6393,,Schneider Al 697 ,,-30.164366,-51.176824
274,,Schneider 300 ,,-30.163095,-51.180286
273,,Schneider Df 320 ,,-30.163259,-51.180044
268,,Schneider 80 ,,-30.162306,-51.18248
5108,,Schneider Df 440 ,,-30.163775,-51.178545
269,,Schneider Df 110 ,,-30.162488,-51.182191
4655,,Delegado Ely Correa Prado 915 E E Marris E Barros,,-30.035797,-51.107174
4656,,Delegado Ely Correa Prado 1340 ,,-30.034263,-51.106571
4654,,Delegado Ely Correa Prado 714 E E Mariz E Barros,,-30.035986,-51.107381
4660,,Delegado Ely Correa Prado 480 ,,-30.037271,-51.105143
4661,,Delegado Ely Correa Prado 150 ,,-30.038939,-51.104384
4653,,Delegado Ely Correa Prado 549 ,,-30.037281,-51.105822
536,,Wenceslau Escobar 2247 ,,-30.108168,-51.25396
5828,,Dr Joao Dentice Df 499 ,,-30.160233,-51.140587
2383,,Gedeon Leite 3583 ,,-30.13999,-51.174409
4229,,Martins Bastos 787 ,,-29.987715,-51.126665
4226,,Martins Bastos 635 ,,-29.987815,-51.128421
4219,,Martins Bastos 427 ,,-29.987944,-51.130517
4218,,Martins Bastos 366 ,,-29.987906,-51.131128
4958,,Donario Braga 133 ,,-29.998102,-51.101052
4884,,Dois Vila Santa Rosa Df 98 ,,-29.998042,-51.102992
4885,,Donario Braga 102 ,,-29.998054,-51.102646
4883,,Donario Braga 49 ,,-29.997663,-51.104675
4882,,Donario Braga 54 ,,-29.997592,-51.104657
4876,,Donario Braga 11 ,,-29.997275,-51.106362
4875,,Donario Braga 18 ,,-29.997239,-51.106194
4957,,Donario Braga 124 ,,-29.998057,-51.101478
814,,Cel Massot 878 ,,-30.099069,-51.239933
6303,,Cel Massot 903 ,,-30.09907,-51.239647
5037,,Elvira Dendena Df 372 ,,-30.161101,-51.173484
5459,,Elvira Dendena 492 ,,-30.161013,-51.17204
292,,Elvira Dendena Df 514 ,,-30.161083,-51.171889
5102,,Oscar Antunes De Oliveira 266 ,,-30.162624,-51.171096
5100,,Oscar Antunes De Oliveira Df 142 ,,-30.163029,-51.172272
5105,,Mario Vieira Marques 48 ,,-30.161998,-51.169843
657,,Conselheiro Xavier Da Costa 2782 ,,-30.131209,-51.231027
672,,Conselheiro Xavier Da Costa 3260/Df 3279 ,,-30.132582,-51.226126
671,,Conselheiro Xavier Da Costa 3279 ,,-30.132776,-51.225877
314,,Joao Antonio Silveira 165 ,,-30.165139,-51.153745
2376,,Gedeon Leite 2500/Df 2397 ,,-30.144369,-51.175877
286,,Gedeon Leite 1076 ,,-30.152286,-51.180452
285,,Gedeon Leite 1055 ,,-30.152159,-51.180175
5103,,Oscar Antunes De Oliveira 269 ,,-30.162663,-51.170953
6576,,Oscar Antunes De Oliveira 138 ,,-30.162975,-51.172347
5107,,Mario Vieira Marques Al 109 ,,-30.161088,-51.169823
5106,,Mario Vieira Marques 15 ,,-30.162162,-51.169789
660,,Conselheiro Xavier Da Costa Df 2852 ,,-30.131511,-51.230242
4297,,Otaviano Jose Pinto 2256 ,,-30.237102,-51.092643
670,,Conselheiro Xavier Da Costa 3094/Al 3080 ,,-30.132113,-51.227784
669,,Conselheiro Xavier Da Costa 3045 ,,-30.132094,-51.228125
2382,,Gedeon Leite 2545 ,,-30.14099,-51.175003
6115,,Gedeon Leite Df 3265 ,,-30.142881,-51.175474
6575,,Gedeon Leite Df 2925 ,,-30.145629,-51.175987
6114,,Gedeon Leite 3325 ,,-30.142342,-51.175352
6574,,Gedeon Leite Df 2875 ,,-30.146319,-51.175719
6573,,Gedeon Leite 1530 ,,-30.151202,-51.177705
2375,,Gedeon Leite Df 2805 ,,-30.147057,-51.175416
283,,Gedeon Leite Df 819 ,,-30.154064,-51.182546
282,,Gedeon Leite 859 ,,-30.153938,-51.182079
281,,Gedeon Leite Al 624 ,,-30.155713,-51.182998
6571,,Gedeon Leite Df 624 ,,-30.155569,-51.182909
278,,Gedeon Leite 615 ,,-30.156121,-51.182931
276,,Gedeon Leite 393 ,,-30.158469,-51.182988
6570,,Gedeon Leite Df 595 ,,-30.156438,-51.183022
275,,Gedeon Leite 390 ,,-30.158443,-51.183071
6569,,Gedeon Leite Df 235 ,,-30.159809,-51.183102
272,,Gedeon Leite 225 ,,-30.159931,-51.18302
271,,Gedeon Leite 105 ,,-30.161181,-51.183057
270,,Gedeon Leite Nn 90/Df 99 ,,-30.161218,-51.183141
6568,,Monte Cristo Df 1018 ,,-30.122478,-51.220111
494,,Wenceslau Escobar 3229 ,,-30.116328,-51.25371
740,,Liberal 1010 ,,-30.114594,-51.243508
640,,Liberal 840 ,,-30.115103,-51.245002
5241,,Farrapos 464 ,,-30.025032,-51.215143
326,,Edgar Pires De Castro 3175/Df 3130 ,,-30.158401,-51.161251
538,,Nossa Senhora De Lourdes Df 327 ,,-30.113944,-51.251606
549,,Jose Gomes Df Escola ,,-30.108161,-51.249637
387,,Edgar Pires De Castro 5800 ,,-30.176828,-51.144313
1254,,Marechal Mesquita Esq. Av.clem. Ba ,,-30.08433,-51.208494
6096,,Gaurama 187 ,,-30.099047,-51.228354
639,,Liberal 638 ,,-30.115675,-51.246539
638,,Liberal Nn 643/Df 658 ,,-30.115673,-51.246329
6075,,Liberal 879 ,,-30.115059,-51.24469
641,,Liberal 1015 ,,-30.114663,-51.243484
904,,Liberal 3092 ,,-30.109857,-51.230373
743,,Liberal Al 1116/Df 1115 ,,-30.114214,-51.242423
1063,,Dr Pitrez 224 ,,-30.143664,-51.211139
3687,,Farrapos 4700 Posto Br,,-29.996929,-51.191425
5552,,Farrapos 4211 ,,-29.997434,-51.195554
3688,,Farrapos 4785 ,,-29.996671,-51.19056
5240,,Farrapos Df 4211 ,,-29.997389,-51.196212
3655,,Farrapos Metrop/Conorte ,,-29.997418,-51.196824
5785,,Farrapos T2/T2a ,,-29.99741,-51.19665
3650,,Farrapos 3857 ,,-29.9989,-51.198101
3609,,Farrapos 3452 ,,-30.002266,-51.1995
3608,,Farrapos Df 3345 ,,-30.003479,-51.199972
3611,,Farrapos 3601 ,,-30.001413,-51.199101
3607,,Farrapos 3301 ,,-30.003747,-51.199989
6137,,Cairu Sn Box 6,,-30.004648,-51.199791
6136,,Cairu Sn Box 5,,-30.004626,-51.199859
5749,,Cairu Sn Box 4,,-30.004607,-51.199916
6139,,Cairu Sn Box 2,,-30.004556,-51.200087
3567,,Farrapos Df 3045 ,,-30.006008,-51.200943
3563,,Farrapos 2955 ,,-30.006864,-51.201186
3562,,Farrapos 2818 ,,-30.007767,-51.201626
5751,,Cairu Sn Box 1,,-30.004534,-51.200175
5242,,Farrapos 2664 ,,-30.009141,-51.202157
5247,,Farrapos 2643 ,,-30.009485,-51.202201
3544,,Farrapos 2234 ,,-30.012742,-51.203563
3546,,Farrapos 2377 ,,-30.011806,-51.203094
5246,,Farrapos 2181 ,,-30.013058,-51.203662
3533,,Farrapos 1811 ,,-30.015693,-51.206407
5244,,Farrapos Df 1779 Esq Alvaro Chaves,,-30.015994,-51.206879
3532,,Farrapos 1714 ,,-30.016365,-51.207313
5553,,Farrapos 1655 ,,-30.016822,-51.207728
5243,,Farrapos 2206 ,,-30.013067,-51.203765
2204,,Farrapos 1215 ,,-30.019925,-51.210363
2201,,Farrapos Df 1057 ,,-30.021047,-51.211203
2193,,Farrapos Al 827 ,,-30.02279,-51.21277
6567,,Farrapos 700 ,,-30.023726,-51.2138
2192,,Farrapos Df 700 ,,-30.023725,-51.21369
5245,,Farrapos 1326 ,,-30.019188,-51.209979
2189,,Farrapos 558 ,,-30.024694,-51.214762
1664,,Farrapos 285 ,,-30.02612,-51.216503
1660,,Farrapos 64 ,,-30.026507,-51.218536
6001,,Farrapos 312 ,,-30.026013,-51.216473
3463,,Ten Ary Tarrago 2690 ,,-30.018529,-51.131263
1252,,Costa Lima 564 ,,-30.08743,-51.209629
1072,,Dr Pitrez Al 796 ,,-30.138249,-51.209672
4066,,Dona Alzira Df 655 ,,-30.004332,-51.138237
1615,,Jose Do Patrocinio Df 1280 Metroplan,,-30.044841,-51.218209
1613,,Jose Do Patrocinio 987 ,,-30.042922,-51.220047
1601,,Jose Do Patrocinio Al 847 ,,-30.041852,-51.221117
1582,,Jose Do Patrocinio Df 230 ,,-30.037598,-51.225545
516,,Copacabana Df 255 ,,-30.105237,-51.258578
515,,Copacabana 255 ,,-30.105339,-51.258682
513,,Copacabana Nn 41/Df 40 ,,-30.105775,-51.260341
1864,,Monsenhor Veras 493 ,,-30.049403,-51.200664
5147,,Dr Joao Dentice Nn 530/Al 840 ,,-30.162594,-51.139144
6566,,Doze De Outubro 34 ,,-30.063129,-51.186823
1073,,Dr Pitrez 924 ,,-30.137398,-51.209478
5683,,Gen Salustiano Df 388 ,,-30.035109,-51.240052
6564,,Otaviano Pinto 258 ,,-30.215825,-51.050307
3921,,Alianca 357 ,,-30.007074,-51.154528
6563,,Sao Joao-cel Aparicio Borges Df 55 ,,-30.073905,-51.181422
6562,,Sao Jorge-cel Aparicio Borges 6 ,,-30.073467,-51.181673
2199,,Cristovao Colombo 718 ,,-30.02435,-51.21098
2200,,Cristovao Colombo 771 ,,-30.024042,-51.210495
2138,,Domingos Crescencio 708/Df 709 ,,-30.047177,-51.203293
2137,,Domingos Crescencio 687 ,,-30.047399,-51.203529
2133,,Leopoldo Bier Df 798 ,,-30.044943,-51.204875
3389,,Nilo Ruschel Al 483 Df Praça,,-30.036949,-51.132034
3143,,Bento Goncalves Df 6647 ,,-30.066286,-51.150341
2810,,Bento Goncalves 6117 Rampa Compensados,,-30.065211,-51.154511
2782,,Bento Goncalves  ,,-30.063409,-51.159812
2811,,Bento Goncalves 6146 Rampa Compensados,,-30.065184,-51.154193
2781,,Bento Goncalves 5690 Ee Caldas Júnior,,-30.063608,-51.159264
3142,,Bento Goncalves 6647 ,,-30.066668,-51.150432
699,,Fe Df 361 Praça Jairo Domingo,,-30.115239,-51.228353
6243,,Torquato Severo Esq. Jaime Vigno ,,-29.979652,-51.175038
3459,,Ten Ary Tarrago Al 2500 ,,-30.02014,-51.131334
3388,,Nilo Ruschel Df 483/500 Na Praça,,-30.03692,-51.132109
2175,,Garibaldi 816 ,,-30.027955,-51.214988
2442,,Prof Oscar Pereira Hospital Hospital Parque Belém,,-30.106166,-51.173103
5473,,Prof Oscar Pereira Hospital Hospital Parque Belém,,-30.105935,-51.172994
2443,,Prof Oscar Pereira 7790 ,,-30.104628,-51.172515
2444,,Prof Oscar Pereira Df 7790 ,,-30.104343,-51.172493
2445,,Prof Oscar Pereira 7850 ,,-30.103683,-51.171879
2448,,Prof Oscar Pereira 7401 ,,-30.102333,-51.171851
2451,,Prof Oscar Pereira 7086 ,,-30.09939,-51.172808
2450,,Prof Oscar Pereira Al 7135 ,,-30.099867,-51.172843
2449,,Prof Oscar Pereira 7490 ,,-30.101812,-51.172086
2446,,Prof Oscar Pereira Df 6886 ,,-30.098383,-51.174407
2447,,Prof Oscar Pereira 6906 ,,-30.098377,-51.174249
2464,,Prof Oscar Pereira 6720 ,,-30.097672,-51.175959
2460,,Prof Oscar Pereira 6336 ,,-30.096334,-51.177732
2459,,Prof Oscar Pereira Df 6336 ,,-30.096339,-51.177824
6560,,Sao Caetano 1601 ,,-30.18176,-51.077585
5753,,Sao Caetano 2002/2004 Reserva Indígena,,-30.17997,-51.067961
72,,Retiro Da Ponta Grossa 3541 ,,-30.184996,-51.209548
3208,,Bento Goncalves Df 9935 ,,-30.078325,-51.118945
3206,,Bento Goncalves 9483 ,,-30.076789,-51.123227
3205,, 9500 Entrada Colégio Aplicação - Ufrgs,,-30.075914,-51.124634
3197,,Bento Goncalves 8855 ,,-30.076745,-51.129393
3201,,Bento Goncalves Df 9099 ,,-30.076859,-51.127053
3196,,Bento Goncalves Df 8843 ,,-30.076622,-51.129599
3207,,Bento Goncalves Df 9493 ,,-30.076733,-51.123116
3200,,Bento Goncalves 9099 ,,-30.076931,-51.127059
3149,,Bento Goncalves Al 8333 ,,-30.075216,-51.134515
3150,,Bento Goncalves 8426 ,,-30.074946,-51.134852
3152,,Bento Goncalves 7712 ,,-30.071866,-51.139609
3147,,Bento Goncalves 7235 ,,-30.069197,-51.14325
3148,,Bento Goncalves 7500 ,,-30.068987,-51.143547
3146,,Bento Goncalves 6926 ,,-30.068018,-51.146542
3145,,Bento Goncalves 6881 ,,-30.067952,-51.146946
3151,,Bento Goncalves Df 7712 ,,-30.071857,-51.139745
2695,,Bento Goncalves 3626 ,,-30.063599,-51.178855
2696,,Bento Goncalves 3819 ,,-30.062834,-51.178051
5601,,Bento Goncalves 3480 ,,-30.06459,-51.181402
2025,,Bento Goncalves 2941 ,,-30.063199,-51.185856
2023,,Bento Goncalves 3080 8º Batalhão De Logística,,-30.063399,-51.185326
5658,,Bento Goncalves 2695 ,,-30.06206,-51.188153
5600,,Bento Goncalves 2673 ,,-30.061941,-51.188403
2014,,Bento Goncalves 2460/Df 2551 ,,-30.061371,-51.189397
2022,,Bento Goncalves Df 2727 ,,-30.062291,-51.187492
1978,,Bento Goncalves 2018 ,,-30.058602,-51.194104
1979,,Bento Goncalves 2199 ,,-30.059436,-51.19283
1983,,Bento Goncalves 1638 ,,-30.056534,-51.197358
1854,,Bento Goncalves 1515 ,,-30.05512,-51.199261
1981,,Bento Goncalves 1272/Df 1275 ,,-30.05432,-51.200116
5595,,Bento Goncalves 1015 ,,-30.053384,-51.202979
1845,,Bento Goncalves Df 880 Escolinha Girafinha,,-30.05282,-51.204522
1984,,Bento Goncalves 1781 ,,-30.057237,-51.196377
5539,,Bento Goncalves 587/Al 583 ,,-30.051892,-51.207038
5538,,Bento Goncalves 461 ,,-30.051423,-51.208413
1802,,Bento Goncalves 343 ,,-30.051143,-51.209632
1844,,Bento Goncalves Df 725/717 ,,-30.052382,-51.205508
6559,,Faria Lobato 1120 ,,-29.984145,-51.123635
6558,,Faria Lobato Df 1120 ,,-29.984213,-51.123452
6556,,Assis Brasil 6661 ,,-29.993214,-51.128418
4390,,Sao Caetano Df 1976 ,,-30.181196,-51.073189
4388,,Sao Caetano 1613 ,,-30.182768,-51.07826
4387,,Sao Caetano Df 1600 Fazenda Das Figueiras,,-30.182837,-51.078388
4386,,Sao Caetano 2933 ,,-30.187934,-51.082222
4382,,Sao Caetano 1203/Df 1230 ,,-30.190135,-51.086406
4379,,Sao Caetano 975 ,,-30.190626,-51.087406
4322,,Sao Caetano 200 ,,-30.218399,-51.098027
4323,,Sao Caetano 117/Df 244 ,,-30.21773,-51.097652
4366,,Sao Caetano Sn ,,-30.207949,-51.090845
4781,,Paraiso Df 57 ,,-30.046615,-51.085256
5225,,B Um Lot Do Bosque 323 Dmae,,-29.987178,-51.092844
5878,,Baltazar De Oliveira Garcia S/N ,,-30.014771,-51.100273
2791,,Ipiranga 7348 Moda Casa,,-30.055464,-51.164658
2795,,Ipiranga 7635 Lojas Todeschini,,-30.056015,-51.160975
4367,,Taquara 2150 ,,-30.195098,-51.098732
4370,,Taquara 2222 ,,-30.190261,-51.094438
6555,,Taquara 1516 ,,-30.198255,-51.10224
4362,,Taquara 1109 ,,-30.199083,-51.104548
6554,,Taquara Df 1414 ,,-30.198849,-51.103152
4360,,Taquara 1029 ,,-30.200643,-51.108242
4359,,Taquara 673 ,,-30.201099,-51.109598
4356,,Taquara 201/Dmae 443 ,,-30.202677,-51.112363
1568,,Washington Luiz 815 ,,-30.036703,-51.232467
1518,,Washington Luiz Df 608 Escola Tecnica Parobe,,-30.036291,-51.234303
1513,,Washington Luiz Df 388 ,,-30.036031,-51.236193
1514,,Washington Luiz 370 ,,-30.036015,-51.236547
1508,,Washington Luiz 238 Esq. Gen Vasco Alves,,-30.036254,-51.237989
1507,,Washington Luiz Df 152 ,,-30.036367,-51.238774
1510,,Washington Luiz Df 258 ,,-30.036267,-51.237608
1503,,Washington Luiz 70 ,,-30.036035,-51.239574
1364,,Correa Lima 1831 ,,-30.072279,-51.230797
1365,,Correa Lima 1790 ,,-30.07217,-51.229985
1371,,Correa Lima 1551 ,,-30.07125,-51.228072
1366,,Correa Lima Df 1642 ,,-30.071677,-51.229239
1382,,Correa Lima Df 1238 Claro Digital,,-30.069507,-51.224767
1411,,Correa Lima 1101 ,,-30.067965,-51.224285
1412,,Correa Lima 825 ,,-30.066712,-51.224002
1463,,Correa Lima 720 ,,-30.065403,-51.223541
1462,,Correa Lima 715 ,,-30.065199,-51.223568
1465,,Correa Lima 573 ,,-30.064111,-51.223256
1464,,Correa Lima 640 ,,-30.064403,-51.223257
1477,,Correa Lima Df 127 Cpoer,,-30.061556,-51.220324
4031,,Joaquim Silveira 200 ,,-30.007869,-51.142876
1466,,Correa Lima 181 ,,-30.061737,-51.220871
4032,,Joaquim Silveira 305 ,,-30.007141,-51.142717
4058,,Joaquim Silveira 479 ,,-30.005682,-51.142568
4062,,Joaquim Silveira Al 781 Enfrente A Gkn,,-30.002974,-51.142307
4063,,Joaquim Silveira Df 791 ,,-30.00268,-51.14239
4065,,Joaquim Silveira 1015 ,,-30.000817,-51.142404
4064,,Joaquim Silveira 984 ,,-30.001019,-51.142473
4059,,Joaquim Silveira 554 ,,-30.0047,-51.14255
6552,,Joaquim Silveira Ef 1288 ,,-29.998128,-51.142548
3466,,G Jardim Passo Das Pedras Ii 172 ,,-30.023797,-51.128016
4096,,Joaquim Silveira Ef 1288 ,,-29.998135,-51.142628
3454,,G Jardim Passo Das Pedras Ii 105/107 Igreja Assembleia De Deus,,-30.025815,-51.128624
3465,,G Jardim Passo Das Pedras Ii 147/149 Minimercado Japao,,-30.023992,-51.127981
3385,,Nilo Ruschel 175 ,,-30.039711,-51.132294
6551,,Nilo Ruschel 174 ,,-30.039818,-51.132386
3394,,Nilo Ruschel 672 ,,-30.034831,-51.131913
3396,,Nilo Ruschel 818 ,,-30.033573,-51.131965
3397,,Nilo Ruschel 911 ,,-30.033894,-51.131852
3425,,Joao Dallegrave 219-A ,,-30.037054,-51.122365
3476,,Ana Aurora Do Amaral Lisboa 219 ,,-30.017945,-51.127513
3477,,Ana Aurora Do Amaral Lisboa 95 ,,-30.016805,-51.127443
3419,,Protasio Alves 8652 ,,-30.039488,-51.125111
4732,,Sargento Silvio Delmar Hollenbach Df 300 Praça,,-30.018908,-51.109615
2609,,Capitao Carlos Lamarca 167 ,,-30.088117,-51.124002
2610,,Capitao Carlos Lamarca Al 35 ,,-30.088065,-51.122447
5948,,Jorge Pereira Nunes 4525 Chácara Recanto Do Sabiá,,-30.148171,-51.178779
2374,,Jorge Pereira Nunes 2500 ,,-30.142796,-51.183477
1173,,Jorge Pereira Nunes 1320 ,,-30.132045,-51.190393
5947,,Jorge Pereira Nunes 1423 ,,-30.13205,-51.190585
1263,,Belem Velho Df 3580 ,,-30.110242,-51.196487
1267,,Belem Velho Df 4000 ,,-30.112906,-51.192469
700,,Familia Goncalves Carneiro 214 ,,-30.115016,-51.228271
1884,,Comendador Antonio Fontoura 213 ,,-30.077767,-51.196479
1877,,Comendador Antonio Fontoura 85 ,,-30.078782,-51.197459
6127,,Herval 41 ,,-30.094146,-51.177596
2465,,Herval 123/Dmae 142 ,,-30.093609,-51.177082
1337,,Jaguari 20 ,,-30.081311,-51.234126
1823,,Padre Antonio Vieira-tomaz Edison Ii 449 ,,-30.062446,-51.20327
1831,,Padre Antonio Vieira 215 ,,-30.060278,-51.202623
1838,,Guilherme Schell 640 ,,-30.056979,-51.208002
3686,,Ceara 463 ,,-30.000024,-51.191087
2361,,Carlos Gomes 80 ,,-30.022506,-51.184088
3363,,Israel Wolf Df 296 ,,-30.02887,-51.136953
